[
  {
    "name": "2-Rad-Fachhandel Benker",
    "adresse": "Bahnhofstrasse 57, 7302 Landquart",
    "marke": "",
    "lat": 46.968601500000005,
    "lon": 9.5622841185405
  },
  {
    "name": "Aare Touring Garage AG",
    "adresse": "Steinachermattweg 1, 5033 Buchs AG",
    "marke": "",
    "lat": 47.3963502,
    "lon": 8.0726927
  },
  {
    "name": "Aaretal Garage AG Münsingen",
    "adresse": "Bernstrasse 91-93, 3110 Münsingen",
    "marke": "",
    "lat": 46.8869099,
    "lon": 7.5548977
  },
  {
    "name": "ABAG Nutzfahrzeuge AG",
    "adresse": "Hühnerhubelstrasse 87, 3123 Belp",
    "marke": "",
    "lat": 46.90589505,
    "lon": 7.492974815973506
  },
  {
    "name": "ABAG Nutzfahrzeuge AG",
    "adresse": "Zelgstrasse 87, 3661 Uetendorf",
    "marke": "",
    "lat": 46.78032505,
    "lon": 7.594042597413775
  },
  {
    "name": "ABATRAG AG",
    "adresse": "Längfeldweg 111, 2504 Biel/Bienne",
    "marke": "",
    "lat": 47.155995950000005,
    "lon": 7.289546549999996
  },
  {
    "name": "Abt Automobile AG Zweigniederlassung Muttenz",
    "adresse": "St. Jakob-Strasse 72, 4132 Muttenz",
    "marke": "",
    "lat": 47.5310471,
    "lon": 7.638529104416563
  },
  {
    "name": "Abt Automobile AG",
    "adresse": "Lausenerstrasse 11, 4410 Liestal",
    "marke": "",
    "lat": 47.4768148,
    "lon": 7.747570631950195
  },
  {
    "name": "Abt Automobile AG",
    "adresse": "Aumattstrasse 144, 4153 Reinach BL",
    "marke": "",
    "lat": 47.4901785,
    "lon": 7.5974339
  },
  {
    "name": "AC Alu-Car Garagen AG",
    "adresse": "Faden 1, 6374 Buochs",
    "marke": "",
    "lat": 46.96846095,
    "lon": 8.404172599999999
  },
  {
    "name": "ACM Autocentre Moutier SA",
    "adresse": "rue des Gorges 18, 2740 Moutier",
    "marke": "",
    "lat": 47.28210905,
    "lon": 7.380748836676714
  },
  {
    "name": "ACW Auto-Center Visp AG",
    "adresse": "Kantonsstrasse 6, 3930 Eyholz",
    "marke": "",
    "lat": 46.2938963,
    "lon": 7.905186642470602
  },
  {
    "name": "Garage Adank Chur AG",
    "adresse": "Emserstrasse 2, 7000 Chur",
    "marke": "",
    "lat": 46.84616685,
    "lon": 9.506588085984326
  },
  {
    "name": "Aebi Auto AG",
    "adresse": "Bernstrasse 38, 3250 Lyss",
    "marke": "",
    "lat": 47.0679388,
    "lon": 7.315775290125329
  },
  {
    "name": "Sport-Garage Affentranger AG Affentranger Marcel",
    "adresse": "Langenthalstrasse 57, 4932 Lotzwil",
    "marke": "",
    "lat": 47.195601800000006,
    "lon": 7.788608532821242
  },
  {
    "name": "AHG-Cars Avenches SA",
    "adresse": "Route de Berne 6, 1580 Avenches",
    "marke": "",
    "lat": 46.88307445,
    "lon": 7.045705118263619
  },
  {
    "name": "AHG-Cars Biel",
    "adresse": "Bözingenstrasse 100, 2502 Biel/Bienne",
    "marke": "",
    "lat": 47.150132,
    "lon": 7.2626213
  },
  {
    "name": "AHG-Cars Bulle SA",
    "adresse": "Rue de Vevey 82, 1630 Bulle",
    "marke": "",
    "lat": 46.6156162,
    "lon": 7.0520392
  },
  {
    "name": "AHG-Cars Fribourg SA",
    "adresse": "route de Villars-Vert 9, 1752 Villars-sur-Glâne",
    "marke": "",
    "lat": 46.798612,
    "lon": 7.128785699496746
  },
  {
    "name": "AHG-Cars Kerzers AG",
    "adresse": "Murtenstrasse 38, 3210 Kerzers",
    "marke": "",
    "lat": 46.9683171,
    "lon": 7.189982097117811
  },
  {
    "name": "AHG-Cars Murten AG Zweigniederlassung Laupen AHG-Cars Laupen",
    "adresse": "Neueneggstrasse 10, 3177 Laupen BE",
    "marke": "",
    "lat": 46.9008765,
    "lon": 7.24493863918609
  },
  {
    "name": "AHG-Cars Port AG",
    "adresse": "Moosgasse 16, 2562 Port",
    "marke": "",
    "lat": 47.11826045,
    "lon": 7.252769963038461
  },
  {
    "name": "AHG-Cars Tafers SA",
    "adresse": "Mariahilfstrasse 1, 1712 Tafers",
    "marke": "",
    "lat": 46.8154632,
    "lon": 7.215495567269775
  },
  {
    "name": "AHG-Cars Wünnewil AG",
    "adresse": "Dorfstrasse 2, 3184 Wünnewil",
    "marke": "",
    "lat": 46.875166,
    "lon": 7.279555157150972
  },
  {
    "name": "Airport-Garage Geronimi SA",
    "adresse": "Cho d'Punt Dadour 83, 7503 Samedan",
    "marke": "",
    "lat": 46.5301418,
    "lon": 9.874005937117904
  },
  {
    "name": "Albis-Garage Schaub Schaub Daniel",
    "adresse": "Industriestrasse 20, 8910 Affoltern am Albis",
    "marke": "",
    "lat": 47.27123255,
    "lon": 8.444241264316972
  },
  {
    "name": "Alcardis Automobile AG",
    "adresse": "Worblaufenstrasse 4, 3048 Worblaufen",
    "marke": "",
    "lat": 46.9770496659575,
    "lon": 7.4658744813792755
  },
  {
    "name": "Garage Allemann AG",
    "adresse": "Schichtstrasse 1, 4528 Zuchwil",
    "marke": "",
    "lat": 47.2102573,
    "lon": 7.5572691
  },
  {
    "name": "Allmend Automobile AG",
    "adresse": "Zwirnerstrasse 316, 8041 Zürich",
    "marke": "",
    "lat": 47.33605985,
    "lon": 8.517557102156026
  },
  {
    "name": "Alternative Cars S.A.",
    "adresse": "Avenue de Grandson 72, 1400 Yverdon-les-Bains",
    "marke": "",
    "lat": 46.79055505,
    "lon": 6.6291340924990685
  },
  {
    "name": "AMAG First AG Porsche Zentrum Zürich",
    "adresse": "Bernstrasse 59, 8952 Schlieren",
    "marke": "",
    "lat": 47.40023235,
    "lon": 8.4657925
  },
  {
    "name": "AMAG Automobiles et Moteurs SA Succursale Retail Prangins Centre Audi",
    "adresse": "Route de Lausanne 114, 1197 Prangins",
    "marke": "",
    "lat": 46.3909986,
    "lon": 6.2511229953425484
  },
  {
    "name": "AMAG Automobil und Motoren AG Zweigniederlassung Retail Aarau",
    "adresse": "Rohrerstrasse 29, 5000 Aarau",
    "marke": "",
    "lat": 47.395159250000006,
    "lon": 8.057839525991394
  },
  {
    "name": "AMAG Automobil und Motoren AG Zweigniederlassung Retail Altstetten",
    "adresse": "Vulkanstrasse 120, 8048 Zürich",
    "marke": "",
    "lat": 47.3940505,
    "lon": 8.4820011
  },
  {
    "name": "AMAG Automobil und Motoren AG Zweigniederlassung Retail Autowelt Zürich",
    "adresse": "Giessenstrasse 4, 8600 Dübendorf",
    "marke": "",
    "lat": 47.4020992,
    "lon": 8.609658910468216
  },
  {
    "name": "AMAG Automobil und Motoren AG Zweigniederlassung Retail Badenerstrasse",
    "adresse": "Badenerstrasse 329, 8003 Zürich",
    "marke": "",
    "lat": 47.3775378,
    "lon": 8.511578
  },
  {
    "name": "AMAG Automobil und Motoren AG Zweigniederlassung Retail Basel",
    "adresse": "Reinacherstrasse 149/151, 4053 Basel",
    "marke": "",
    "lat": 47.53970042126476,
    "lon": 7.603035602538693
  },
  {
    "name": "AMAG Automobil und Motoren AG Zweigniederlassung Basel Audi Center",
    "adresse": "Reinacherstrasse 149, 4053 Basel",
    "marke": "",
    "lat": 47.5348729,
    "lon": 7.6048675
  },
  {
    "name": "AMAG Automobili e Motori SA Succursale Retail di Bellinzona",
    "adresse": "Via San Gottardo 71, 6500 Bellinzona",
    "marke": "",
    "lat": 46.2054012,
    "lon": 9.035848888849998
  },
  {
    "name": "AMAG Automobil und Motoren AG Zweigniederlassung Retail Bern Wankdorf",
    "adresse": "Wankdorffeldstrasse 60, 3014 Bern",
    "marke": "",
    "lat": 46.9656943,
    "lon": 7.4670871
  },
  {
    "name": "AMAG Automobil und Motoren AG Zweigniederlassung Retail Beromünster",
    "adresse": "Aargauerstrasse 13, 6215 Beromünster",
    "marke": "",
    "lat": 47.20894695,
    "lon": 8.190991238442464
  },
  {
    "name": "AMAG Automobil und Motoren AG Zweigniederlassung Retail Biel Längfeldweg",
    "adresse": "Längfeldweg 118, 2504 Biel/Bienne",
    "marke": "",
    "lat": 47.15334705,
    "lon": 7.285130500000006
  },
  {
    "name": "AMAG Automobili e Motori SA Succursale Retail di Breganzona Centro Audi",
    "adresse": "via San Carlo 6, 6932 Breganzona",
    "marke": "",
    "lat": 46.0131551,
    "lon": 8.931315999999999
  },
  {
    "name": "AMAG Automobil und Motoren AG Zweigniederlassung Retail Biel",
    "adresse": "Römerstrasse 16, 2555 Brügg BE",
    "marke": "",
    "lat": 47.121744,
    "lon": 7.261137840721355
  },
  {
    "name": "AMAG Automobil und Motoren AG Zweigniederlassung Retail Buchrain",
    "adresse": "Elsihof 1, 6035 Perlen",
    "marke": "",
    "lat": 47.1069759,
    "lon": 8.353707569162388
  },
  {
    "name": "AMAG Automobil und Motoren AG Zweigniederlassung Retail Bülach",
    "adresse": "Bächliwis 29, 8184 Bachenbülach",
    "marke": "",
    "lat": 47.5078468,
    "lon": 8.543466174782292
  },
  {
    "name": "AMAG Automobiles et Moteurs SA Succursale Retail Bulle",
    "adresse": "rue de Vuippens 55, 1630 Bulle",
    "marke": "",
    "lat": 46.62789495,
    "lon": 7.060406748815647
  },
  {
    "name": "AMAG Automobiles et Moteurs SA Succursale Retail Carouge",
    "adresse": "chemin de la Marbrerie 8, 1227 Carouge",
    "marke": "",
    "lat": 46.179108,
    "lon": 6.135440575813399
  },
  {
    "name": "AMAG Automobil und Motoren AG Zweigniederlassung Retail Zug",
    "adresse": "Alte Steinhauserstrasse 1, 6330 Cham",
    "marke": "",
    "lat": 47.1865003,
    "lon": 8.4739032
  },
  {
    "name": "AMAG Automobiles et Moteurs SA Succursale Retail Châtelaine",
    "adresse": "Chemin J.-Ph. De-Sauvage 44-46, 1219 Châtelaine",
    "marke": "",
    "lat": 46.21367318171051,
    "lon": 6.10321150736455
  },
  {
    "name": "AMAG Automobil und Motoren AG Zweigniederlassung Retail Chur",
    "adresse": "Rossbodenstrasse 14-19, 7000 Chur",
    "marke": "",
    "lat": 46.85108238114653,
    "lon": 9.504796984470692
  },
  {
    "name": "AMAG Automobili e Motori SA Succursale Retail di Coldrerio",
    "adresse": "Via San Gottardo 52, 6877 Coldrerio",
    "marke": "",
    "lat": 45.8577362,
    "lon": 8.9861793
  },
  {
    "name": "AMAG Automobiles et Moteurs SA Succursale Retail Crissier",
    "adresse": "Rue de la Vernie 2, 1023 Crissier",
    "marke": "",
    "lat": 46.54362145,
    "lon": 6.571714096701429
  },
  {
    "name": "AMAG Automobil und Motoren AG Zweigniederlassung Retail Davos",
    "adresse": "Talstrasse 22, 7270 Davos Platz",
    "marke": "",
    "lat": 46.7953859,
    "lon": 9.824810297271616
  },
  {
    "name": "AMAG Automobil und Motoren AG Zweigniederlassung Retail Dulliken",
    "adresse": "Bodenackerstrasse 61, 4657 Dulliken",
    "marke": "",
    "lat": 47.350824200000005,
    "lon": 7.953822077604169
  },
  {
    "name": "AMAG Automobil und Motoren AG Zweigniederlassung Retail Emmen",
    "adresse": "Mooshüslistrasse 32, 6032 Emmen",
    "marke": "",
    "lat": 47.07842385,
    "lon": 8.290448318710064
  },
  {
    "name": "AMAG Automobiles et Moteurs SA Succursale Retail Etoy",
    "adresse": "Route de Buchillon 1, 1163 Etoy",
    "marke": "",
    "lat": 46.47353505,
    "lon": 6.414028934925258
  },
  {
    "name": "AMAG Automobil und Motoren AG Zweigniederlassung Retail Fislisbach",
    "adresse": "Winkelstrasse 2, 5442 Fislisbach",
    "marke": "",
    "lat": 47.4416483,
    "lon": 8.2956752
  },
  {
    "name": "AMAG Automobil und Motoren AG Zweigniederlassung Retail Frauenfeld",
    "adresse": "Zürcherstrasse 331, 8500 Frauenfeld",
    "marke": "",
    "lat": 47.5666715,
    "lon": 8.912403271483804
  },
  {
    "name": "AMAG Automobiles et Moteurs SA Succursale Retail Fribourg",
    "adresse": "Route de Villars 103-106, 1701 Fribourg",
    "marke": "",
    "lat": 46.80089195135172,
    "lon": 7.142988215561818
  },
  {
    "name": "AMAG Automobili e Motori SA Succursale Retail di Giubiasco Centro Audi",
    "adresse": "Via Bellinzona 37, 6512 Giubiasco",
    "marke": "",
    "lat": 46.173888541193925,
    "lon": 9.010764299096444
  },
  {
    "name": "AMAG Automobili e Motori SA Succursale Retail di Giubiasco Centro Skoda",
    "adresse": "Via Bellinzona 20, 6512 Giubiasco",
    "marke": "",
    "lat": 46.173888541193925,
    "lon": 9.010764299096444
  },
  {
    "name": "AMAG Automobil und Motoren AG Zweigniederlassung Retail Gümligen",
    "adresse": "Worbstrasse 226, 3073 Gümligen",
    "marke": "",
    "lat": 46.93290845,
    "lon": 7.506158179209031
  },
  {
    "name": "AMAG Automobil und Motoren AG Zweigniederlassung Retail Heerbrugg",
    "adresse": "Auerstrasse 20, 9435 Heerbrugg",
    "marke": "",
    "lat": 47.41357515,
    "lon": 9.630651584397086
  },
  {
    "name": "AMAG Automobil und Motoren AG Zweigniederlassung Retail Horgen",
    "adresse": "Im Schnegg 1, 8810 Horgen",
    "marke": "",
    "lat": 47.2481368,
    "lon": 8.6048958
  },
  {
    "name": "AMAG Automobil und Motoren AG Zweigniederlassung Retail Jona",
    "adresse": "St. Gallerstrasse 101, 8645 Jona",
    "marke": "",
    "lat": 47.2304044,
    "lon": 8.84733385354506
  },
  {
    "name": "AMAG Automobil und Motoren AG Zweigniederlassung Retail Kleinbasel",
    "adresse": "Schönaustrasse 25, 4058 Basel",
    "marke": "",
    "lat": 47.5677783,
    "lon": 7.5991173
  },
  {
    "name": "AMAG Automobil und Motoren AG Zweigniederlassung Retail Kloten",
    "adresse": "Steinackerstrasse 20, 8302 Kloten",
    "marke": "",
    "lat": 47.4489878,
    "lon": 8.596771043788248
  },
  {
    "name": "AMAG Automobil und Motoren AG Zweigniederlassung Retail Kriens",
    "adresse": "Grabenhofstrasse 10, 6010 Kriens",
    "marke": "",
    "lat": 47.02375155,
    "lon": 8.295981788254364
  },
  {
    "name": "AMAG Automobiles et Moteurs SA Succursale Retail Lausanne",
    "adresse": "Avenue de Provence 2, 1007 Lausanne",
    "marke": "",
    "lat": 46.52241825,
    "lon": 6.612710338643375
  },
  {
    "name": "AMAG Automobil und Motoren AG Zweigniederlassung Retail Letzigrund Audi Center",
    "adresse": "Rautistrasse 23, 8048 Zürich",
    "marke": "",
    "lat": 47.38040215,
    "lon": 8.492757820238086
  },
  {
    "name": "AMAG Automobil und Motoren AG Zweigniederlassung Retail Liestal",
    "adresse": "Rheinstrasse 107, 4410 Liestal",
    "marke": "",
    "lat": 47.49675285,
    "lon": 7.723208475446682
  },
  {
    "name": "AMAG Automobili e Motori SA Succursale Retail di Mendrisio Garage Cassarate",
    "adresse": "Via Rinaldi 3, 6850 Mendrisio",
    "marke": "",
    "lat": 45.8804544,
    "lon": 8.958604060839129
  },
  {
    "name": "AMAG Automobil und Motoren AG Zweigniederlassung Retail Murten",
    "adresse": "Bernstrasse 11, 3280 Murten",
    "marke": "",
    "lat": 46.93031037299125,
    "lon": 7.122521113213559
  },
  {
    "name": "AMAG Automobil und Motoren AG Zweigniederlassung Retail Muttenz",
    "adresse": "Birsfelderstrasse 50, 4132 Muttenz",
    "marke": "",
    "lat": 47.53697035,
    "lon": 7.6341464547152995
  },
  {
    "name": "AMAG Automobil und Motoren AG Zweigniederlassung Retail Schlieren",
    "adresse": "Lättenstrasse 37, 8952 Schlieren",
    "marke": "",
    "lat": 47.4028543,
    "lon": 8.4410925
  },
  {
    "name": "AMAG Automobil und Motoren AG Zweigniederlassung Retail NF Uster VW Nutzfahrzeugcenter",
    "adresse": "Pfäffikerstrasse 32, 8610 Uster",
    "marke": "",
    "lat": 47.3575687,
    "lon": 8.728557949999999
  },
  {
    "name": "AMAG Automobiles et Moteurs SA Succursale Retail Nyon Champ-Colin Centre VW et Skoda",
    "adresse": "Route de Champ-Colin 9, 1260 Nyon",
    "marke": "",
    "lat": 46.3836539,
    "lon": 6.2166932
  },
  {
    "name": "AMAG Automobil und Motoren AG Zweigniederlassung Retail Oftringen",
    "adresse": "Bernstrasse 23, 4665 Oftringen",
    "marke": "",
    "lat": 47.3098145,
    "lon": 7.9125348
  },
  {
    "name": "AMAG Automobili e Motori SA Succursale Retail di Pambio-Noranco",
    "adresse": "Via Pian Scairolo 36, 6915 Pambio-Noranco",
    "marke": "",
    "lat": 45.9818828,
    "lon": 8.929204642873874
  },
  {
    "name": "AMAG Automobiles et Moteurs SA Succursale Retail Petit-Lancy",
    "adresse": "Chemin du Bac 21, 1213 Petit-Lancy",
    "marke": "",
    "lat": 46.1958738,
    "lon": 6.1129194
  },
  {
    "name": "AMAG Automobil und Motoren AG Zweigniederlassung Retail Pratteln",
    "adresse": "Muttenzerstrasse 143, 4133 Pratteln",
    "marke": "",
    "lat": 47.5208124,
    "lon": 7.6742785
  },
  {
    "name": "AMAG Automobil und Motoren AG Zweigniederlassung Retail PW Uster",
    "adresse": "Ackerstrasse 47, 8610 Uster",
    "marke": "",
    "lat": 47.35661545,
    "lon": 8.706119064034532
  },
  {
    "name": "AMAG Automobil und Motoren AG Zweigniederlassung Retail Rheinfelden",
    "adresse": "Zürcherstrasse 34, 4310 Rheinfelden",
    "marke": "",
    "lat": 47.55154855,
    "lon": 7.803961785073865
  },
  {
    "name": "AMAG Automobil und Motoren AG Zweigniederlassung Retail Schaffhausen",
    "adresse": "Spitalstrasse 27, 8201 Schaffhausen",
    "marke": "",
    "lat": 47.69980625,
    "lon": 8.633044470918367
  },
  {
    "name": "AMAG Automobil und Motoren AG Zweigniederlassung Retail Schinznach-Bad",
    "adresse": "Aarauerstrasse 22, 5116 Schinznach Bad",
    "marke": "",
    "lat": 47.44352957556569,
    "lon": 8.168680202486852
  },
  {
    "name": "AMAG Automobil und Motoren AG Zweigniederlassung Retail Solothurn/Zuchwil",
    "adresse": "Gewerbestrasse 11, 4528 Zuchwil",
    "marke": "",
    "lat": 47.200787,
    "lon": 7.574528753714089
  },
  {
    "name": "AMAG Automobiles et Moteurs SA Succursale Retail St. Légier",
    "adresse": "route Industrielle 9, 1806 St-Légier-La Chiésaz",
    "marke": "",
    "lat": 46.47464425,
    "lon": 6.863861746805366
  },
  {
    "name": "AMAG Automobil und Motoren AG Zweigniederlassung Retail Sursee",
    "adresse": "Neuweidstrasse 1, 6208 Oberkirch LU",
    "marke": "",
    "lat": 47.1523882,
    "lon": 8.116179475567687
  },
  {
    "name": "AMAG Automobil und Motoren AG Zweigniederlassung Retail Thun",
    "adresse": "Gwattstrasse 22-28, 3604 Thun",
    "marke": "",
    "lat": 46.734397903246695,
    "lon": 7.627146169539347
  },
  {
    "name": "AMAG Automobil und Motoren AG Zweigniederlassung Retail Vaduz",
    "adresse": "Austrasse 37, 9490 Vaduz",
    "marke": "",
    "lat": 47.12944455,
    "lon": 9.523342638376054
  },
  {
    "name": "AMAG Automobiles et Moteurs SA Succursale Retail Vernier Centre VW Véhicules Utilitaires",
    "adresse": "Route du Nant-d'Avril 34, 1214 Vernier",
    "marke": "",
    "lat": 46.2201938,
    "lon": 6.0855256
  },
  {
    "name": "AMAG Automobil und Motoren AG Zweigniederlassung Retail Vevey",
    "adresse": "avenue Général-Guisan 78, 1800 Vevey",
    "marke": "",
    "lat": 46.46342629212888,
    "lon": 6.841114149896987
  },
  {
    "name": "AMAG Automobil und Motoren AG Zweigniederlassung Retail Villeneuve",
    "adresse": "route du Simplon 17, 1845 Noville",
    "marke": "",
    "lat": 46.39102305,
    "lon": 6.922379106051398
  },
  {
    "name": "AMAG Automobil und Motoren AG Zweigniederlassung Retail NF Winterthur",
    "adresse": "Zürcherstrasse 312, 8406 Winterthur",
    "marke": "",
    "lat": 47.47754665,
    "lon": 8.703925922697753
  },
  {
    "name": "AMAG Automobil und Motoren AG Zweigniederlassung Retail PW Winterthur",
    "adresse": "Zürcherstrasse 240, 8406 Winterthur",
    "marke": "",
    "lat": 47.4860541,
    "lon": 8.70188346789959
  },
  {
    "name": "AMAG Automobil und Motoren AG Zweigniederlassung Retail Wettswil",
    "adresse": "Moosstrasse 33a, 8907 Wettswil",
    "marke": "",
    "lat": 47.33461825,
    "lon": 8.467478253039566
  },
  {
    "name": "AMAG Automobil und Motoren AG Zweigniederlassung Retail Utoquai",
    "adresse": "Utoquai 47/49, 8008 Zürich",
    "marke": "",
    "lat": 47.3623515,
    "lon": 8.5477223
  },
  {
    "name": "AMAG Automobil und Motoren AG Zweigniederlassung Retail Zürich-Wollishofen",
    "adresse": "Kalchbühlstrasse 40-44, 8038 Zürich",
    "marke": "",
    "lat": 47.335315220713575,
    "lon": 8.534339943288124
  },
  {
    "name": "AMAG Automobil und Motoren AG Zweigniederlassung Retail Zuchwil/Solothurn",
    "adresse": "Langfeldstrasse 30, 4528 Zuchwil",
    "marke": "",
    "lat": 47.2024646,
    "lon": 7.571978474533596
  },
  {
    "name": "AMAG Automobiles et Moteurs SA AMAG Retail La Tour-de-Trême",
    "adresse": "Route de Pra-Riond 5, 1635 La Tour-de-Trême",
    "marke": "",
    "lat": 46.6016328,
    "lon": 7.0755693
  },
  {
    "name": "AMAG Automobil- und Motoren AG",
    "adresse": "Oberfeldstrasse 6, 8570 Weinfelden",
    "marke": "",
    "lat": 47.5607536,
    "lon": 9.131500097011688
  },
  {
    "name": "AMAG Automobil und Motoren AG Wettingen",
    "adresse": "Landstrasse 51, 5430 Wettingen",
    "marke": "",
    "lat": 47.46435685214266,
    "lon": 8.32977034867766
  },
  {
    "name": "Andrea Bricalli SA",
    "adresse": "Via San Gottardo 31, 6877 Coldrerio",
    "marke": "",
    "lat": 45.853611529123256,
    "lon": 8.996344041358238
  },
  {
    "name": "Annerturgi Nutzfahrzeuge AG",
    "adresse": "Vogelsangstrasse 13a, 5412 Gebenstorf",
    "marke": "",
    "lat": 47.4891503,
    "lon": 8.2413127
  },
  {
    "name": "Garage Arena AG",
    "adresse": "Weingartenstrasse 70, 3904 Naters",
    "marke": "",
    "lat": 46.32850285,
    "lon": 8.009402901412003
  },
  {
    "name": "Arenaz Automobiles Crissier SA",
    "adresse": "Chemin de l'esparcette 6, 1023 Crissier",
    "marke": "",
    "lat": 46.55253235,
    "lon": 6.572955607987232
  },
  {
    "name": "Arenaz Automobiles et Service SA",
    "adresse": "Route de Bremblens 2, 1122 Romanel-sur-Morges",
    "marke": "",
    "lat": 46.5511054,
    "lon": 6.511973558975354
  },
  {
    "name": "ASS Auto-Sport-Service SA",
    "adresse": "Route des Acacias 39, 1227 Les Acacias",
    "marke": "",
    "lat": 46.19080888928608,
    "lon": 6.134790555499706
  },
  {
    "name": "Asticher SA Garage & Carrosserie",
    "adresse": "Rue du Jura-Industriel 32, 2304 La Chaux-de-Fonds",
    "marke": "",
    "lat": 47.08534585,
    "lon": 6.800974452047583
  },
  {
    "name": "Garage Atlantic Eyer Paul AG",
    "adresse": "Industriestrasse 32, 3900 Gamsen",
    "marke": "",
    "lat": 46.307087938096174,
    "lon": 7.962717067237158
  },
  {
    "name": "Atlas Automobiles SA",
    "adresse": "Avenue du Grand-St-Bernard 42, 1920 Martigny",
    "marke": "",
    "lat": 46.0962759,
    "lon": 7.0679888
  },
  {
    "name": "Atlas Automobiles Sierre SA",
    "adresse": "route du Simplon 75, 3960 Sierre",
    "marke": "",
    "lat": 46.2985274,
    "lon": 7.5466482
  },
  {
    "name": "Auto AG Truck Gossau",
    "adresse": "Lagerstrasse 4, 9200 Gossau SG",
    "marke": "",
    "lat": 47.4113807,
    "lon": 9.275177907194571
  },
  {
    "name": "Auto AG Truck Limmattal",
    "adresse": "Im Gewerbepark 1, 8104 Weiningen ZH",
    "marke": "",
    "lat": 47.4171457,
    "lon": 8.4182211
  },
  {
    "name": "Auto AG Truck Müllheim",
    "adresse": "Grüneck, 8555 Müllheim Dorf",
    "marke": "",
    "lat": 47.5943176,
    "lon": 8.9938568
  },
  {
    "name": "Auto AG Truck Oberland",
    "adresse": "Glütschbachstrasse 5, 3661 Uetendorf",
    "marke": "",
    "lat": 46.77759235,
    "lon": 7.582211405262871
  },
  {
    "name": "Auto AG Truck Rothenburg",
    "adresse": "Stationsstrasse 88, 6023 Rothenburg",
    "marke": "",
    "lat": 47.09138995,
    "lon": 8.251067754023302
  },
  {
    "name": "Auto AG Truck Schönbühl",
    "adresse": "Gewerbestrasse 12, 3322 Urtenen-Schönbühl",
    "marke": "",
    "lat": 47.01756005,
    "lon": 7.499094063617839
  },
  {
    "name": "Auto AG Truck Staad",
    "adresse": "Hauptstrasse 104, 9422 Staad SG",
    "marke": "",
    "lat": 47.4840182,
    "lon": 9.551733147545756
  },
  {
    "name": "Auto Bolli AG, Benken ZH",
    "adresse": "Marthalerstrasse 9, 8463 Benken ZH",
    "marke": "",
    "lat": 47.6510295,
    "lon": 8.652920873115578
  },
  {
    "name": "Auto Center AG Worben",
    "adresse": "Hauptstrasse 64, 3252 Worben",
    "marke": "",
    "lat": 47.094332300000005,
    "lon": 7.290261758987156
  },
  {
    "name": "Auto-Center H.R. Flückiger AG",
    "adresse": "Langenthalstrasse 61, 4912 Aarwangen",
    "marke": "",
    "lat": 47.2344018,
    "lon": 7.774837220282264
  },
  {
    "name": "Auto-Center Küng AG",
    "adresse": "Landstrasse 73, 5412 Gebenstorf",
    "marke": "",
    "lat": 47.4815048,
    "lon": 8.240272497839442
  },
  {
    "name": "Auto Dünki AG",
    "adresse": "Weiachstrasse 2, 8413 Neftenbach",
    "marke": "",
    "lat": 47.5189125,
    "lon": 8.655496953002388
  },
  {
    "name": "Auto-Graf AG",
    "adresse": "Seestrasse 941, 8706 Meilen",
    "marke": "",
    "lat": 47.26429965,
    "lon": 8.66159492491834
  },
  {
    "name": "Auto Kämpf AG",
    "adresse": "Winterhaldenstrasse 5, 3627 Heimberg",
    "marke": "",
    "lat": 46.79769005,
    "lon": 7.602549051875717
  },
  {
    "name": "Auto Kurve AG",
    "adresse": "Hauptstrasse 7, 4416 Bubendorf",
    "marke": "",
    "lat": 47.4562793,
    "lon": 7.7410472
  },
  {
    "name": "Auto-La Côte SA",
    "adresse": "Rue de l’Etraz 2, 1196 Gland",
    "marke": "",
    "lat": 46.4222795,
    "lon": 6.2608642088588695
  },
  {
    "name": "Auto Lang AG",
    "adresse": "Langfeldstrasse 76, 8500 Frauenfeld",
    "marke": "",
    "lat": 47.56651945,
    "lon": 8.908863601385463
  },
  {
    "name": "Auto Lang AG",
    "adresse": "Sonnenwiesenstrasse 17, 8280 Kreuzlingen",
    "marke": "",
    "lat": 47.6443316,
    "lon": 9.194361994745986
  },
  {
    "name": "Auto Lüthi GmbH",
    "adresse": "Hauptstrasse 74, 8572 Berg TG",
    "marke": "",
    "lat": 47.58408585,
    "lon": 9.169192205155838
  },
  {
    "name": "Auto Margarethen AG",
    "adresse": "Margarethenstrasse 79, 4053 Basel",
    "marke": "",
    "lat": 47.5450183,
    "lon": 7.5827339
  },
  {
    "name": "Auto Mathis AG",
    "adresse": "Via Somplaz 33, 7500 St. Moritz",
    "marke": "",
    "lat": 46.49644450809571,
    "lon": 9.83658222457698
  },
  {
    "name": "Auto-Mathis AG",
    "adresse": "Cho d'Punt 33, 7503 Samedan",
    "marke": "",
    "lat": 46.5299559,
    "lon": 9.8753271
  },
  {
    "name": "Auto Moto Marine Brienz AG",
    "adresse": "Lauimattenweg 11, 3855 Brienz BE",
    "marke": "",
    "lat": 46.7439625,
    "lon": 8.056633999999999
  },
  {
    "name": "Auto Neubrück AG",
    "adresse": "Talstrasse 18, 3922 Stalden VS",
    "marke": "",
    "lat": 46.22740190095946,
    "lon": 7.871675535184789
  },
  {
    "name": "Auto Nüssle AG",
    "adresse": "Industriestrasse 11, 7220 Schiers",
    "marke": "",
    "lat": 46.9667328,
    "lon": 9.690793789459974
  },
  {
    "name": "Auto-Rives, succursale de Groupe Leuba SA",
    "adresse": "Rue de Lausanne 45, 1110 Morges",
    "marke": "",
    "lat": 46.5158866,
    "lon": 6.5046429
  },
  {
    "name": "Auto Rüger AG Grosshöchstetten",
    "adresse": "Thunstrasse 6, 3506 Grosshöchstetten",
    "marke": "",
    "lat": 46.9004119,
    "lon": 7.633050385048801
  },
  {
    "name": "Auto Rüger AG",
    "adresse": "Hauptstrasse 7, 3860 Meiringen",
    "marke": "",
    "lat": 46.72817475,
    "lon": 8.183144979280623
  },
  {
    "name": "Auto Rüger AG Langnau",
    "adresse": "Schärischachen 808, 3550 Langnau im Emmental",
    "marke": "",
    "lat": 46.9241349,
    "lon": 7.820984625014196
  },
  {
    "name": "Auto Rüger AG Wilderswil",
    "adresse": "Industriestrasse 12, 3812 Wilderswil",
    "marke": "",
    "lat": 46.67166265,
    "lon": 7.877599604691065
  },
  {
    "name": "Auto SA Truck Ticino",
    "adresse": "via San Mamete 98, 6805 Mezzovico",
    "marke": "",
    "lat": 46.09238475,
    "lon": 8.9217374
  },
  {
    "name": "Auto Sauter AG",
    "adresse": "Landstrasse 6, 8754 Netstal",
    "marke": "",
    "lat": 47.06598055,
    "lon": 9.057388446833157
  },
  {
    "name": "Auto Suter AG",
    "adresse": "Chamerstrasse 50, 6331 Hünenberg",
    "marke": "",
    "lat": 47.18045243594741,
    "lon": 8.437909745764358
  },
  {
    "name": "Auto Suter AG Filiale Sins",
    "adresse": "Luzernerstrasse 27, 5643 Sins",
    "marke": "",
    "lat": 47.1883609,
    "lon": 8.3963494
  },
  {
    "name": "Auto Suter Küssnacht GmbH",
    "adresse": "Bodenweid 2, 6403 Küssnacht am Rigi",
    "marke": "",
    "lat": 47.08704145,
    "lon": 8.440130723005783
  },
  {
    "name": "Auto Walser AG",
    "adresse": "Bahnhofstrasse 56, 7323 Wangs",
    "marke": "",
    "lat": 47.03876695,
    "lon": 9.436745759814857
  },
  {
    "name": "Auto Werthmüller AG",
    "adresse": "Tempelstrasse 8A, 3608 Thun",
    "marke": "",
    "lat": 46.74540372064296,
    "lon": 7.597197499147576
  },
  {
    "name": "Auto Wild AG",
    "adresse": "Untermüli 6, 6300 Zug",
    "marke": "",
    "lat": 47.1805506,
    "lon": 8.5181305
  },
  {
    "name": "Auto Wydematt AG",
    "adresse": "Laufenstrasse 6, 4226 Breitenbach",
    "marke": "",
    "lat": 47.40784425,
    "lon": 7.5424142372785745
  },
  {
    "name": "Auto Zentrum West AG",
    "adresse": "Piccardstrasse 1, 9015 St. Gallen",
    "marke": "",
    "lat": 47.4091981,
    "lon": 9.31285124261422
  },
  {
    "name": "Auto Zollikofer AG",
    "adresse": "Sonnmattstrasse 10, 9532 Rickenbach b. Wil",
    "marke": "",
    "lat": 47.4532731,
    "lon": 9.045396303846136
  },
  {
    "name": "AUTOBRITT AUTOMOBILE SA",
    "adresse": "Rue Viguet 1, 1227 Les Acacias",
    "marke": "",
    "lat": 46.1921368,
    "lon": 6.1293435
  },
  {
    "name": "Autocenter Aebi AG",
    "adresse": "Bernstrasse, 3250 Lyss",
    "marke": "",
    "lat": 47.07011808088454,
    "lon": 7.310644634933912
  },
  {
    "name": "Autocenter Bülach-Süd AG",
    "adresse": "Länggenstrasse 36, 8184 Bachenbülach",
    "marke": "",
    "lat": 47.5023178,
    "lon": 8.53810949769555
  },
  {
    "name": "AutoCenter Effretikon Inglin & Roci AG",
    "adresse": "Industriestrasse 2, 8307 Effretikon",
    "marke": "",
    "lat": 47.41846005,
    "lon": 8.684516516074186
  },
  {
    "name": "Autocenter Meier AG",
    "adresse": "Hauptstrasse 158, 5742 Kölliken",
    "marke": "",
    "lat": 47.3280213,
    "lon": 8.02130143176625
  },
  {
    "name": "Autocenter Säntis AG",
    "adresse": "Bildstrasse 3, 9030 Abtwil SG",
    "marke": "",
    "lat": 47.4171367,
    "lon": 9.3123782
  },
  {
    "name": "Autocenter Zimmerli GmbH",
    "adresse": "Bruggerstrasse 47, 5102 Rupperswil",
    "marke": "",
    "lat": 47.40757605,
    "lon": 8.137019504068952
  },
  {
    "name": "Autocorner Valais SA",
    "adresse": "Rue Traversière 10, 1950 Sion",
    "marke": "",
    "lat": 46.2184068,
    "lon": 7.3500338
  },
  {
    "name": "Autofrank AG",
    "adresse": "Trockenloostrasse 65, 8105 Regensdorf",
    "marke": "",
    "lat": 47.44084135,
    "lon": 8.472187133265827
  },
  {
    "name": "Autohaus Imholz AG Ebikon",
    "adresse": "Luzernerstrasse 49, 6030 Ebikon",
    "marke": "",
    "lat": 47.0719577,
    "lon": 8.324985486808373
  },
  {
    "name": "Autohaus Schneider AG",
    "adresse": "Zeughausstrasse 74, 8400 Winterthur",
    "marke": "",
    "lat": 47.4966682,
    "lon": 8.7317987
  },
  {
    "name": "Autohaus Thun-Nord AG Steffisburg",
    "adresse": "Bernstrasse 119, 3613 Steffisburg",
    "marke": "",
    "lat": 46.77599145,
    "lon": 7.614671479182494
  },
  {
    "name": "Autohaus von Känel AG",
    "adresse": "Spiezstrasse 22, 3714 Frutigen",
    "marke": "",
    "lat": 46.59504895,
    "lon": 7.652089007775885
  },
  {
    "name": "Autohaus Wederich, Donà AG",
    "adresse": "Grienweg 7, 4222 Zwingen",
    "marke": "",
    "lat": 47.4392211,
    "lon": 7.53759005
  },
  {
    "name": "Autohaus Willi AG",
    "adresse": "Kasernenstrasse 30, 7000 Chur",
    "marke": "",
    "lat": 46.84769485,
    "lon": 9.524203272830755
  },
  {
    "name": "Automaxx AG",
    "adresse": "Mühlenstrasse 96, 8207 Schaffhausen",
    "marke": "",
    "lat": 47.6928425,
    "lon": 8.6232822
  },
  {
    "name": "Automobile Franzen AG",
    "adresse": "Kantonsstrasse 75, 3930 Visp",
    "marke": "",
    "lat": 46.2939665,
    "lon": 7.9020885
  },
  {
    "name": "Automobiles Senn SA",
    "adresse": "Le Bey, 1442 Montagny-Yverdon",
    "marke": "",
    "lat": 46.79097285,
    "lon": 6.62558935
  },
  {
    "name": "Automobiles Zimmermann SA",
    "adresse": "Route de Chésalles 56, 1723 Marly",
    "marke": "",
    "lat": 46.773186527771735,
    "lon": 7.153812890072301
  },
  {
    "name": "AutoNova Payerne SA",
    "adresse": "Route de la Grosse Pierre 24, 1530 Payerne",
    "marke": "",
    "lat": 46.82613674558433,
    "lon": 6.94572979110506
  },
  {
    "name": "Autorama, Fritz Schläpfer AG",
    "adresse": "Langäulistrasse 70, 9470 Buchs SG",
    "marke": "",
    "lat": 47.17442955,
    "lon": 9.466837427343398
  },
  {
    "name": "Autorep AG",
    "adresse": "Kantonsstrasse 111, 6234 Triengen",
    "marke": "",
    "lat": 47.2458127,
    "lon": 8.06968535
  },
  {
    "name": "Autorimessa Nepple SA Bellinzona",
    "adresse": "viale Stefano Franscini 30, 6500 Bellinzona",
    "marke": "",
    "lat": 46.193247,
    "lon": 9.0120996
  },
  {
    "name": "Autors SA Ford",
    "adresse": "Via Monte Ceneri 20a, 6512 Giubiasco",
    "marke": "",
    "lat": 46.17183515023637,
    "lon": 9.009721332800453
  },
  {
    "name": "AUTORS SA Renault",
    "adresse": "via Monte Ceneri 20, 6512 Giubiasco",
    "marke": "",
    "lat": 46.17183515023637,
    "lon": 9.009721332800453
  },
  {
    "name": "AUTORS SA",
    "adresse": "via Industria 21, 6934 Bioggio",
    "marke": "",
    "lat": 46.0179134,
    "lon": 8.917877449999999
  },
  {
    "name": "Autos Carouge, André Chevalley SA",
    "adresse": "route de Saint-Julien 46, 1227 Carouge",
    "marke": "",
    "lat": 46.1762991,
    "lon": 6.1322565
  },
  {
    "name": "Autos Carrefour Dorigny, succursale de Groupe Leuba SA",
    "adresse": "Route Cantonale 1, 1022 Chavannes-Renens",
    "marke": "",
    "lat": 46.5212537,
    "lon": 6.586269372859019
  },
  {
    "name": "Autoverkehr AG Langenthal",
    "adresse": "Gaswerkstrasse 41, 4900 Langenthal",
    "marke": "",
    "lat": 47.228383,
    "lon": 7.78727295937862
  },
  {
    "name": "Autoverkehr AG Zuchwil",
    "adresse": "Gewerbestrasse 1, 4528 Zuchwil",
    "marke": "",
    "lat": 47.201537,
    "lon": 7.5722696
  },
  {
    "name": "Autoverkehr Region Bern AG",
    "adresse": "Hubelgutstrasse 2, 3048 Worblaufen",
    "marke": "",
    "lat": 46.98072155,
    "lon": 7.455792991305943
  },
  {
    "name": "Autoviva AG",
    "adresse": "Kreuzlingerstrasse 30, 8580 Amriswil",
    "marke": "",
    "lat": 47.54738815,
    "lon": 9.279887521719242
  },
  {
    "name": "Autoweibel AG",
    "adresse": "Murtenstrasse 4, 3270 Aarberg",
    "marke": "",
    "lat": 47.0438206,
    "lon": 7.273390839861923
  },
  {
    "name": "Baldegger Automobile AG",
    "adresse": "Erlachstrasse 3, 9014 St. Gallen",
    "marke": "",
    "lat": 47.4108013,
    "lon": 9.3366448
  },
  {
    "name": "Baldegger Automobile AG ZN Oberuzwil",
    "adresse": "Flawilerstrasse 36, 9242 Oberuzwil",
    "marke": "",
    "lat": 47.4278255,
    "lon": 9.1286567
  },
  {
    "name": "Baldegger Automobile AG ZN WIl",
    "adresse": "Flawilerstrasse 31, 9500 Wil SG",
    "marke": "",
    "lat": 47.4505472,
    "lon": 9.055156393904593
  },
  {
    "name": "Gerald Barcal Automobile AG",
    "adresse": "Farbhofstrasse 21, 8048 Zürich",
    "marke": "",
    "lat": 47.3912337,
    "lon": 8.476914665186854
  },
  {
    "name": "Bärfuss AG",
    "adresse": "Gwattstrasse 54, 3604 Thun",
    "marke": "",
    "lat": 46.73466265,
    "lon": 7.626912721133904
  },
  {
    "name": "Centralgarage Barth AG",
    "adresse": "Freiburgstrasse 396, 3018 Bern",
    "marke": "",
    "lat": 46.9346947,
    "lon": 7.391514164670509
  },
  {
    "name": "Emil Baschnagel AG",
    "adresse": "Kestenbergstrasse 32, 5210 Windisch",
    "marke": "",
    "lat": 47.4699852,
    "lon": 8.210697240055897
  },
  {
    "name": "Garage Battaglia SA",
    "adresse": "Spinadascio 698A, 7746 Le Prese",
    "marke": "",
    "lat": 46.297386,
    "lon": 10.0740742
  },
  {
    "name": "Moto Bättig AG",
    "adresse": "Hauptstrasse 16, 5737 Menziken",
    "marke": "",
    "lat": 47.244476250000005,
    "lon": 8.186035200877264
  },
  {
    "name": "Garage Bel-Air SA",
    "adresse": "Avenue des Sports 13, 1400 Yverdon-les-Bains",
    "marke": "",
    "lat": 46.7805729,
    "lon": 6.653356496915791
  },
  {
    "name": "Belwag Belp",
    "adresse": "Viehweidstrasse 12, 3123 Belp",
    "marke": "",
    "lat": 46.89122115,
    "lon": 7.50953848485342
  },
  {
    "name": "BELWAG AG Bern",
    "adresse": "Schermenweg 5, 3014 Bern",
    "marke": "",
    "lat": 46.9649315,
    "lon": 7.4692992
  },
  {
    "name": "Garage Berset Sàrl",
    "adresse": "Route de la Gruyère 4, 1723 Marly",
    "marke": "",
    "lat": 46.76997643048279,
    "lon": 7.160389640979642
  },
  {
    "name": "Bertoni Automobili SA",
    "adresse": "via Delta 11, 6612 Ascona",
    "marke": "",
    "lat": 46.16494954638386,
    "lon": 8.777007124003108
  },
  {
    "name": "Bertschy Automobiles SA",
    "adresse": "Route du Madelain 1, 1753 Matran",
    "marke": "",
    "lat": 46.7814874,
    "lon": 7.087832524729
  },
  {
    "name": "Auto Bettschen AG",
    "adresse": "Bernstrasse 40, 3612 Steffisburg",
    "marke": "",
    "lat": 46.7655789,
    "lon": 7.625840856612645
  },
  {
    "name": "Auto Bettschen AG",
    "adresse": "Bernstrasse 210, 3613 Steffisburg",
    "marke": "",
    "lat": 46.7808289,
    "lon": 7.611327560931198
  },
  {
    "name": "Garage Daniel Bieli",
    "adresse": "Brislachstrasse 3, 4226 Breitenbach",
    "marke": "",
    "lat": 47.40952645,
    "lon": 7.543799386277625
  },
  {
    "name": "Garage Bifang Trachsel AG",
    "adresse": "Bifang 5, 1716 Plaffeien",
    "marke": "",
    "lat": 46.74794855,
    "lon": 7.288686867337377
  },
  {
    "name": "Bike-Atelier GmbH",
    "adresse": "Brünigstrasse 34, 6074 Giswil",
    "marke": "",
    "lat": 46.83817855,
    "lon": 8.186943822407446
  },
  {
    "name": "Binelli Automobile AG Filiale Baar",
    "adresse": "Neuhofstrasse 1, 6341 Baar",
    "marke": "",
    "lat": 47.1918324,
    "lon": 8.5131378
  },
  {
    "name": "Binelli Automobile AG Filiale Sihlbrugg",
    "adresse": "Sihlbruggstrasse 138, 6340 Baar",
    "marke": "",
    "lat": 47.215162,
    "lon": 8.570313
  },
  {
    "name": "Binelli Automobile AG Filiale Zürich",
    "adresse": "Badenerstrasse 527, 8048 Zürich",
    "marke": "",
    "lat": 47.3815879,
    "lon": 8.500982942076892
  },
  {
    "name": "A. & M. Bizzozero",
    "adresse": "Länggassstrasse 103, 3000 Bern",
    "marke": "",
    "lat": 46.9563944,
    "lon": 7.4243029
  },
  {
    "name": "Garage Bolero Bumann Gert",
    "adresse": "Grosses Moos 8, 3906 Saas-Fee",
    "marke": "",
    "lat": 46.1125832,
    "lon": 7.931958811245937
  },
  {
    "name": "Garage-Carrosserie Maurice Bonny SA",
    "adresse": "Rue du Collège 22, 2300 La Chaux-de-Fonds",
    "marke": "",
    "lat": 47.1057917,
    "lon": 6.834230891136059
  },
  {
    "name": "Boost Garage GmbH",
    "adresse": "Thurgauerstr 27, 9400 Rorschach",
    "marke": "",
    "lat": 47.4794746,
    "lon": 9.486444831364572
  },
  {
    "name": "Bossard & Humm GmbH",
    "adresse": "Untere Brühlstrasse 48, 4800 Zofingen",
    "marke": "",
    "lat": 47.29639725,
    "lon": 7.931901047650518
  },
  {
    "name": "Garage Bosshardt AG",
    "adresse": "Schwerzenbachstrasse 41, 8117 Fällanden",
    "marke": "",
    "lat": 47.3752232,
    "lon": 8.642788023093546
  },
  {
    "name": "Garage Bouby-Rolls SA",
    "adresse": "quai de la Thièle 30, 1400 Yverdon-les-Bains",
    "marke": "",
    "lat": 46.78147107638455,
    "lon": 6.637167128606569
  },
  {
    "name": "Garage Bove SA",
    "adresse": "Avenue Adrien-Lachenal 23a, 1290 Versoix",
    "marke": "",
    "lat": 46.2822133,
    "lon": 6.163676928659954
  },
  {
    "name": "Bowman Automobile AG",
    "adresse": "Ausserdorfstrasse 19, 5107 Schinznach Dorf",
    "marke": "",
    "lat": 47.4485975,
    "lon": 8.1437519
  },
  {
    "name": "Bräm AG",
    "adresse": "Rietlistrasse 1, 9403 Goldach",
    "marke": "",
    "lat": 47.48319115,
    "lon": 9.475147827510328
  },
  {
    "name": "Auto Brander AG",
    "adresse": "Schwerzistrasse 8, 8807 Freienbach",
    "marke": "",
    "lat": 47.20065514637757,
    "lon": 8.752339166467127
  },
  {
    "name": "Garage Breitschmid AG",
    "adresse": "Aargauerstrasse 16, 5610 Wohlen AG",
    "marke": "",
    "lat": 47.345284,
    "lon": 8.274554
  },
  {
    "name": "Garage Brender SA",
    "adresse": "route Aloys-Fauquez 128, 1018 Lausanne",
    "marke": "",
    "lat": 46.54166835,
    "lon": 6.633464529128961
  },
  {
    "name": "Bruttin Frères SA",
    "adresse": "Route de Sion 79, 3960 Sierre",
    "marke": "",
    "lat": 46.2848926,
    "lon": 7.5168942
  },
  {
    "name": "Buchard Atelier-Carrosserie Bus&Cars SA",
    "adresse": "Route de Saillon 69, 1912 Leytron",
    "marke": "",
    "lat": 46.1809327,
    "lon": 7.2020806
  },
  {
    "name": "R. Bühler AG",
    "adresse": "Austrasse 8, 3176 Neuenegg",
    "marke": "",
    "lat": 46.89442965,
    "lon": 7.30528971326151
  },
  {
    "name": "Busbetrieb Solothurn und Umgebung AG",
    "adresse": "Waldeggstrasse 35, 4528 Zuchwil",
    "marke": "",
    "lat": 47.198582650000006,
    "lon": 7.575984527447572
  },
  {
    "name": "Garage Ernst Buser AG Ormalingen",
    "adresse": "Hauptstrasse 175, 4466 Ormalingen",
    "marke": "",
    "lat": 47.470104,
    "lon": 7.8688478
  },
  {
    "name": "Garage Caflisch AG",
    "adresse": "Via Principala 5-7, 7151 Schluein",
    "marke": "",
    "lat": 46.77953705429895,
    "lon": 9.218182354231889
  },
  {
    "name": "Camionrep. AG Studen",
    "adresse": "Sägeweg 8, 2557 Studen BE",
    "marke": "",
    "lat": 47.1102736,
    "lon": 7.310275372615921
  },
  {
    "name": "Garage du Carrefour Joël Regamey",
    "adresse": "Chemin des Cases 2 bis, 1072 Forel (Lavaux)",
    "marke": "",
    "lat": 46.5297664,
    "lon": 6.768473889838079
  },
  {
    "name": "Cassi et Imhof SA",
    "adresse": "Boulevard des Eplatures 1-3, 2304 La Chaux-de-Fonds",
    "marke": "",
    "lat": 47.0881081989338,
    "lon": 6.80481105632581
  },
  {
    "name": "CC-Nova AG",
    "adresse": "Churerstrasse 5, 7013 Domat/Ems",
    "marke": "",
    "lat": 46.83737525,
    "lon": 9.461503772391108
  },
  {
    "name": "CDS Automobiles SA",
    "adresse": "rue Edouard-Dubied 12, 2108 Couvet",
    "marke": "",
    "lat": 46.9291509,
    "lon": 6.636957
  },
  {
    "name": "Garage Carrosserie Centra AG",
    "adresse": "Alte Landstrasse 1, 3900 Gamsen",
    "marke": "",
    "lat": 46.30514969906537,
    "lon": 7.952614355941878
  },
  {
    "name": "Centra-Garage AG",
    "adresse": "Leimgrubenweg 14, 4053 Basel",
    "marke": "",
    "lat": 47.53687,
    "lon": 7.6063373
  },
  {
    "name": "Central-Garage Denoth AG",
    "adresse": "Stradun 270, 7550 Scuol",
    "marke": "",
    "lat": 46.7987407,
    "lon": 10.304334
  },
  {
    "name": "Central-Garage H.Böckmann AG",
    "adresse": "Benknerstrasse 20, 8730 Uznach",
    "marke": "",
    "lat": 47.2194596,
    "lon": 8.986651011027615
  },
  {
    "name": "Garage Central Hulmann David",
    "adresse": "rue Gustave-Amweg 9 a, 2900 Porrentruy",
    "marke": "",
    "lat": 47.41751015626799,
    "lon": 7.076258489217175
  },
  {
    "name": "Centralgarage AG Steffisburg",
    "adresse": "Bernstrasse 47, 3613 Steffisburg",
    "marke": "",
    "lat": 46.7664577,
    "lon": 7.623487897936588
  },
  {
    "name": "Garage Challandes SA",
    "adresse": "Grand-Rue 22, 2046 Fontaines NE",
    "marke": "",
    "lat": 47.0459465,
    "lon": 6.9001519
  },
  {
    "name": "Garage Chatelanat SA",
    "adresse": "rue Eugène Marziano 18, 1227 Les Acacias",
    "marke": "",
    "lat": 46.19374115,
    "lon": 6.129486469104189
  },
  {
    "name": "Chräbel Garage André Kunz",
    "adresse": "Sonneggstrasse 28, 6410 Goldau",
    "marke": "",
    "lat": 47.0454661,
    "lon": 8.548289958104618
  },
  {
    "name": "Christen Automobile AG",
    "adresse": "Umfahrungsstrasse 25, 6467 Schattdorf",
    "marke": "",
    "lat": 46.85863285,
    "lon": 8.639055984601724
  },
  {
    "name": "Citag AG",
    "adresse": "Bildstrasse 3, 9030 Abtwil SG",
    "marke": "",
    "lat": 47.4171367,
    "lon": 9.3123782
  },
  {
    "name": "City-Garage AG Betrieb Goldach",
    "adresse": "St. Gallerstrasse 76, 9403 Goldach",
    "marke": "",
    "lat": 47.47881145,
    "lon": 9.468824327536234
  },
  {
    "name": "City-Garage AG",
    "adresse": "Zürcher Strasse 511, 9015 St. Gallen",
    "marke": "",
    "lat": 47.4073161,
    "lon": 9.30897195
  },
  {
    "name": "Clinic Cars Yverdon Sàrl",
    "adresse": "Av. de Grandson 64, 1400 Yverdon-les-Bains",
    "marke": "",
    "lat": 46.7896553,
    "lon": 6.630069395331094
  },
  {
    "name": "Garage Corbassières Sàrl",
    "adresse": "Rue de Savoie 31, 1950 Sion",
    "marke": "",
    "lat": 46.2253823,
    "lon": 7.3322656
  },
  {
    "name": "Garage Corpataux AG",
    "adresse": "Thunstrasse 35, 3150 Schwarzenburg",
    "marke": "",
    "lat": 46.81900935,
    "lon": 7.349314278178888
  },
  {
    "name": "crazy riders Interlaken GmbH",
    "adresse": "Kammistrasse 11, 3800 Interlaken",
    "marke": "",
    "lat": 46.6915383,
    "lon": 7.8753597
  },
  {
    "name": "Garage Cuenot Sàrl",
    "adresse": "rue du Marais 3, 2400 Le Locle",
    "marke": "",
    "lat": 47.0613699,
    "lon": 6.755389428440676
  },
  {
    "name": "Cycles et Motos Refouss Sàrl",
    "adresse": "Rue Achille-Merguin 12, 2900 Porrentruy",
    "marke": "",
    "lat": 47.41543055,
    "lon": 7.07203832328244
  },
  {
    "name": "Garage d'Hermance SA Michel Piuz",
    "adresse": "route d'Hermance 564, 1248 Hermance",
    "marke": "",
    "lat": 46.3023697,
    "lon": 6.24628129302444
  },
  {
    "name": "De Blasio SA",
    "adresse": "route de Berne 2, 1524 Marnand",
    "marke": "",
    "lat": 46.75742335,
    "lon": 6.89969155
  },
  {
    "name": "Inter Promotion SA Garage Champsec",
    "adresse": "avenue du Grand-Champsec 51, 1950 Sion",
    "marke": "",
    "lat": 46.2331624,
    "lon": 7.3826504
  },
  {
    "name": "Garage de L`Etoile, Rox`Otz SA",
    "adresse": "rue Fritz-Courvoisier 54, 2300 La Chaux-de-Fonds",
    "marke": "",
    "lat": 47.10642385,
    "lon": 6.838471356374633
  },
  {
    "name": "Garage de la Cour SA",
    "adresse": "Rue des Uttins 43, 2034 Peseux",
    "marke": "",
    "lat": 46.98857097504021,
    "lon": 6.892389686016815
  },
  {
    "name": "Garage de la Marbrerie André Chevalley SA",
    "adresse": "Chemin de la Marbrerie 1, 1227 Carouge",
    "marke": "",
    "lat": 46.1802652,
    "lon": 6.1346887
  },
  {
    "name": "Garage de Monthey SA",
    "adresse": "route de Collombey 55, 1870 Monthey",
    "marke": "",
    "lat": 46.26194755,
    "lon": 6.945500392444039
  },
  {
    "name": "Garage de Nyon A&S Chevalley SA",
    "adresse": "route de Saint-Cergue 293, 1260 Nyon",
    "marke": "",
    "lat": 46.4008832,
    "lon": 6.218557413847071
  },
  {
    "name": "Garage de Palud Jean-Marc Kolly",
    "adresse": "Rte de Morlon 47, 1630 Bulle",
    "marke": "",
    "lat": 46.622678050000005,
    "lon": 7.0679631
  },
  {
    "name": "Garage dell'Aria GmbH",
    "adresse": "Tannenstrasse 112, 8424 Embrach",
    "marke": "",
    "lat": 47.51058255,
    "lon": 8.589398465676158
  },
  {
    "name": "Garage des Parcs S.à.r.l.",
    "adresse": "Rue de la Rosière 2, 2000 Neuchâtel",
    "marke": "",
    "lat": 46.9917944,
    "lon": 6.917286237473352
  },
  {
    "name": "Garage des Sports SA",
    "adresse": "Avenue du Simplon 34, 1870 Monthey",
    "marke": "",
    "lat": 46.2481067,
    "lon": 6.9559891
  },
  {
    "name": "Garage Carrosserie des Trois Chênes S.A",
    "adresse": "Route d'Yverdon 19, 1040 Echallens",
    "marke": "",
    "lat": 46.6456099,
    "lon": 6.63698274812416
  },
  {
    "name": "Destimoto De Simone + Stierli",
    "adresse": "Loretostrasse 18, 9620 Lichtensteig",
    "marke": "",
    "lat": 47.3250492,
    "lon": 9.086242661297378
  },
  {
    "name": "Automobile Diethelm AG",
    "adresse": "St. Gallerstrasse 26/28, 8580 Amriswil",
    "marke": "",
    "lat": 47.54420802682748,
    "lon": 9.298590329882826
  },
  {
    "name": "Dimab Chablais SA",
    "adresse": "Route du Simplon 16, 1895 Vionnaz",
    "marke": "",
    "lat": 46.30845935,
    "lon": 6.904958444531844
  },
  {
    "name": "Dimab Riviera SA",
    "adresse": "Ch. de la Veyre d'en Haut A3, 1806 St-Légier-La Chiésaz",
    "marke": "",
    "lat": 46.4768107,
    "lon": 6.859867714575023
  },
  {
    "name": "DIMAB Rossens SA",
    "adresse": "Chemin de la Longivue 1, 1726 Farvagny-le-Grand",
    "marke": "",
    "lat": 46.7231472,
    "lon": 7.0841993
  },
  {
    "name": "Dimab SA Succursale d'Yverdon",
    "adresse": "Avenue Haldimand 34, 1400 Yverdon-les-Bains",
    "marke": "",
    "lat": 46.77870945,
    "lon": 6.6462942143750094
  },
  {
    "name": "DM - DOUCE MOBILITÉ SARL",
    "adresse": "Chemin du Petit-Flon 27, 1052 Le Mont-sur-Lausanne",
    "marke": "",
    "lat": 46.54463185,
    "lon": 6.62671685205172
  },
  {
    "name": "Garage du Mont-Blanc Moulin SA",
    "adresse": "route du Grand-St-Bernard 24, 1921 Martigny-Croix",
    "marke": "",
    "lat": 46.08795269173175,
    "lon": 7.055940351235378
  },
  {
    "name": "Garage du Nord Monthey SA",
    "adresse": "route du Simplon 19, 1870 Monthey",
    "marke": "",
    "lat": 46.2988934,
    "lon": 6.90994315
  },
  {
    "name": "Garage du Rallye Cornol SA",
    "adresse": "Route de Courgenay 8, 2952 Cornol",
    "marke": "",
    "lat": 47.407732,
    "lon": 7.1575834
  },
  {
    "name": "Automobiles du Verdel SA",
    "adresse": "Rue de l'Etang 13, 1630 Bulle",
    "marke": "",
    "lat": 46.6252737,
    "lon": 7.0676178
  },
  {
    "name": "Garage et Carrosserie du Viaduc- Villeneuve S.A",
    "adresse": "Zone Industrielle C, 1844 Villeneuve VD",
    "marke": "",
    "lat": 46.39148315,
    "lon": 6.932887262885755
  },
  {
    "name": "Garage Dubach AG",
    "adresse": "Oltenstrasse 9, 4702 Oensingen",
    "marke": "",
    "lat": 47.29052865,
    "lon": 7.727764889057738
  },
  {
    "name": "Auto-Center Durrer AG",
    "adresse": "Brünigstrasse 37, 6055 Alpnach Dorf",
    "marke": "",
    "lat": 46.9385645,
    "lon": 8.270894639510278
  },
  {
    "name": "Durret Automobiles SA - FordStore",
    "adresse": "Route de la Drague 60, 1950 Sion",
    "marke": "",
    "lat": 46.220153,
    "lon": 7.3514954
  },
  {
    "name": "Duxon AG",
    "adresse": "Betti 46, 8856 Tuggen",
    "marke": "",
    "lat": 47.18568595,
    "lon": 8.9330897
  },
  {
    "name": "Garage E. Bieri AG",
    "adresse": "Hauptstrasse, 6162 Entlebuch",
    "marke": "",
    "lat": 47.00163492692486,
    "lon": 8.070418478326713
  },
  {
    "name": "Garage Elite C. Chammartin Sàrl",
    "adresse": "route de Bocheferra 9, 1680 Romont FR",
    "marke": "",
    "lat": 46.7041628,
    "lon": 6.9324678031566425
  },
  {
    "name": "Emil Frey AG Zweigniederlassung Rossbodenstrasse",
    "adresse": "Rossbodenstrasse 10, 7000 Chur",
    "marke": "",
    "lat": 46.8501855,
    "lon": 9.505197921593677
  },
  {
    "name": "Emil Frey AG Zweigniederlassung Kasernenstrasse",
    "adresse": "Kasernenstrasse 148, 7007 Chur",
    "marke": "",
    "lat": 46.84658505,
    "lon": 9.512337163543693
  },
  {
    "name": "Emil Frey AG Zweigniederlassung Autowelt Basel-Dreispitz",
    "adresse": "Brüglingerstrasse 2, 4002 Basel",
    "marke": "",
    "lat": 47.5365011,
    "lon": 7.6102123
  },
  {
    "name": "Emil Frey AG Zweigniederlassung Bern Eigerplatz",
    "adresse": "Eigerplatz 2, 3007 Bern",
    "marke": "",
    "lat": 46.9414294,
    "lon": 7.43059
  },
  {
    "name": "Emil Frey AG Zweigniederlassung Dübendorf",
    "adresse": "Zürichstrasse 127/129, 8600 Dübendorf",
    "marke": "",
    "lat": 47.3957739612395,
    "lon": 8.606474564549362
  },
  {
    "name": "Emil Frey SA Succursale Centre Automobiles aux Vernets",
    "adresse": "Rue François-Dussaud 13, 1211 Genève",
    "marke": "",
    "lat": 46.1946302,
    "lon": 6.1310789
  },
  {
    "name": "Emil Frey AG Zweigniederlassung Kreuzgarage Schaffhausen",
    "adresse": "Herblingerstrasse 44, 8207 Schaffhausen",
    "marke": "",
    "lat": 47.7191279,
    "lon": 8.655793943560418
  },
  {
    "name": "Emil Frey SA Succursale Pambio-Noranco",
    "adresse": "via Pian Scairolo, 6915 Pambio-Noranco",
    "marke": "",
    "lat": 45.985427928120885,
    "lon": 8.932393251940544
  },
  {
    "name": "Emil Frey AG Autocenter Luzern-Littau",
    "adresse": "Schachenhof 2, 6014 Luzern",
    "marke": "",
    "lat": 47.0619045,
    "lon": 8.264945749999999
  },
  {
    "name": "Emil Frey AG Zweigniederlassung Moosseedorf",
    "adresse": "Gewerbestrasse 17, 3302 Moosseedorf",
    "marke": "",
    "lat": 47.01418925,
    "lon": 7.492135121694377
  },
  {
    "name": "Emil Frey SA Succursale Garage et Carrosserie",
    "adresse": "route de Fribourg 11, 1723 Marly",
    "marke": "",
    "lat": 46.7794795,
    "lon": 7.152160886616363
  },
  {
    "name": "Emil Frey SA Succursale Morges",
    "adresse": "Avenue de Plan 8, 1110 Morges",
    "marke": "",
    "lat": 46.517341,
    "lon": 6.5042234
  },
  {
    "name": "Emil Frey AG Zweigniederlassung Münchenstein",
    "adresse": "Grabenackerstrasse 10, 4142 Münchenstein",
    "marke": "",
    "lat": 47.5220112,
    "lon": 7.6047883
  },
  {
    "name": "Emil Frey AG, Zweigniederlassung Autocenter",
    "adresse": "Milchstrasse 3, 3072 Ostermundigen",
    "marke": "",
    "lat": 46.96306955,
    "lon": 7.480175061824894
  },
  {
    "name": "Emil Frey AG Zweigniederlassung Safenwil",
    "adresse": "Emil-Frey-Strasse, 5745 Safenwil",
    "marke": "",
    "lat": 47.323842229028585,
    "lon": 7.979901467037533
  },
  {
    "name": "Emil Frey AG Zweigniederlassung Schaffhausen",
    "adresse": "Gennersbrunnerstrasse 58, 8207 Schaffhausen",
    "marke": "",
    "lat": 47.7176527,
    "lon": 8.6625378
  },
  {
    "name": "Emil Frey AG Zweigniederlassung Schlieren",
    "adresse": "Zürcherstrasse 94, 8952 Schlieren",
    "marke": "",
    "lat": 47.3971338,
    "lon": 8.460827457683306
  },
  {
    "name": "Emil Frey SA Succursale Sion",
    "adresse": "Rue de la Dixence 83, 1950 Sion",
    "marke": "",
    "lat": 46.2252869,
    "lon": 7.3739805
  },
  {
    "name": "Emil Frey AG Zweigniederlassung Spreitenbach",
    "adresse": "Landstrasse 148, 8957 Spreitenbach",
    "marke": "",
    "lat": 47.4179936,
    "lon": 8.3754652
  },
  {
    "name": "Emil Frey SA Succursale Centre Automobile St. Légier",
    "adresse": "route Industrielle 10, 1806 St-Légier-La Chiésaz",
    "marke": "",
    "lat": 46.4755138,
    "lon": 6.864248019020673
  },
  {
    "name": "Emil Frey AG Zweigniederlassung St. Moritz",
    "adresse": "Via Maistra 46, 7500 St. Moritz",
    "marke": "",
    "lat": 46.50092115,
    "lon": 9.845029234011893
  },
  {
    "name": "Emil Frey AG Zweigniederlassung Volketswil",
    "adresse": "Industriestrasse 31/33, 8604 Volketswil",
    "marke": "",
    "lat": 47.379873223123454,
    "lon": 8.67941285797192
  },
  {
    "name": "Emil Frey AG Zweigniederlassung Auto Central Zuchwil",
    "adresse": "Langfeldstrasse 1, 4528 Zuchwil",
    "marke": "",
    "lat": 47.20461945,
    "lon": 7.563592500830517
  },
  {
    "name": "Emil Frey AG Zweigniederlassung Züri-Oberland Volketswil",
    "adresse": "Industriestrasse 2b, 8604 Volketswil",
    "marke": "",
    "lat": 47.38267775,
    "lon": 8.664299455544317
  },
  {
    "name": "Emil Frey AG Zweigniederlassung Garage Zürich Nord",
    "adresse": "Thurgauerstrasse 35, 8050 Zürich",
    "marke": "",
    "lat": 47.4137337,
    "lon": 8.550269003006845
  },
  {
    "name": "Emil Frey AG Zweigniederlassung Rheintal-Garage Chur",
    "adresse": "Rossbodenstrasse 2, 7000 Chur",
    "marke": "",
    "lat": 46.84882695,
    "lon": 9.504811701953413
  },
  {
    "name": "Emil Frey AG Zweigniederlassung Landquart",
    "adresse": "Wuhrstrasse 15, 7302 Landquart",
    "marke": "",
    "lat": 46.96903415,
    "lon": 9.57184784506108
  },
  {
    "name": "EMIL FREY SA succursale de Chavannes-près-Renens",
    "adresse": "Route de la Maladière 44, 1022 Chavannes-près-Renens",
    "marke": "",
    "lat": 46.5266586,
    "lon": 6.5814935
  },
  {
    "name": "Garage Engeler AG",
    "adresse": "Zürcherstrasse 281, 8501 Frauenfeld",
    "marke": "",
    "lat": 47.5629819,
    "lon": 8.907137560930671
  },
  {
    "name": "Engeler Automobile AG",
    "adresse": "Dunantstrasse 9, 8570 Weinfelden",
    "marke": "",
    "lat": 47.56597855,
    "lon": 9.093254528593128
  },
  {
    "name": "Engeler Automobile AG",
    "adresse": "Romanshornerstrasse 113, 8280 Kreuzlingen",
    "marke": "",
    "lat": 47.6399085,
    "lon": 9.201506921888374
  },
  {
    "name": "Garage Enzian B&F AG",
    "adresse": "Kantonsstrasse 1, 3946 Turtmann",
    "marke": "",
    "lat": 46.3015754,
    "lon": 7.6998099
  },
  {
    "name": "Epper AG",
    "adresse": "Horwerstrasse 81, 6005 Luzern",
    "marke": "",
    "lat": 47.0359679,
    "lon": 8.3027709
  },
  {
    "name": "Epper AG",
    "adresse": "Baselstrasse 10, 6210 Sursee",
    "marke": "",
    "lat": 47.1725278,
    "lon": 8.092504681765003
  },
  {
    "name": "Ernst Ruckstuhl AG",
    "adresse": "Industriestrasse 10, 8302 Kloten",
    "marke": "",
    "lat": 47.4499276,
    "lon": 8.5886938
  },
  {
    "name": "ETech-3 GmbH",
    "adresse": "Kägenstrasse 25, 4153 Reinach BL",
    "marke": "",
    "lat": 47.4852349,
    "lon": 7.5984263
  },
  {
    "name": "Etoile Automobile, succursale de Groupe Leuba SA",
    "adresse": "Les Tilles 5, 2016 Cortaillod",
    "marke": "",
    "lat": 46.9455149528145,
    "lon": 6.833035869493727
  },
  {
    "name": "ETPL SA",
    "adresse": "Rte du Bois de Bay 16, 1242 Satigny",
    "marke": "",
    "lat": 46.2003894,
    "lon": 6.064115
  },
  {
    "name": "Euro Truck AG Zweigniederlassung Aarau",
    "adresse": "Weihermattstrasse 64, 5000 Aarau",
    "marke": "",
    "lat": 47.3960931,
    "lon": 8.062329460659507
  },
  {
    "name": "Euromobile Sàrl",
    "adresse": "Chemin des Grandes-Vies 21, 2900 Porrentruy",
    "marke": "",
    "lat": 47.42976295,
    "lon": 7.080846741337556
  },
  {
    "name": "Euromobile Sàrl, succursale Delémont",
    "adresse": "Route de Moutier 64, 2800 Delémont",
    "marke": "",
    "lat": 47.36269511453488,
    "lon": 7.350760160547764
  },
  {
    "name": "Evodrive Sàrl",
    "adresse": "Route de l'industrie 16, 1680 Romont FR",
    "marke": "",
    "lat": 46.68880465959989,
    "lon": 6.908768565117801
  },
  {
    "name": "Facchinetti Automobiles (Delémont) SA",
    "adresse": "Route de Moutier 113, 2800 Delémont",
    "marke": "",
    "lat": 47.362666450000006,
    "lon": 7.361626372878822
  },
  {
    "name": "Facchinetti Automobiles (Genève-Meyrin) SA",
    "adresse": "route de Meyrin 214, 1217 Meyrin",
    "marke": "",
    "lat": 46.2254112,
    "lon": 6.0855951
  },
  {
    "name": "Facchinetti Automobiles SA",
    "adresse": "boulevard de la Liberté 2, 2300 La Chaux-de-Fonds",
    "marke": "",
    "lat": 47.09335245,
    "lon": 6.822236791550785
  },
  {
    "name": "Falknisgarge Kunz AG",
    "adresse": "Landstrasse 27, 7304 Maienfeld",
    "marke": "",
    "lat": 47.0021098,
    "lon": 9.532386967282708
  },
  {
    "name": "Felder 2Rad-Center GmbH",
    "adresse": "Entlebucherstrasse 10, 6110 Wolhusen",
    "marke": "",
    "lat": 47.05857495,
    "lon": 8.07185040572493
  },
  {
    "name": "Felix Emmenegger AG",
    "adresse": "Bollstrasse 2, 5417 Untersiggenthal",
    "marke": "",
    "lat": 47.496485,
    "lon": 8.2683652
  },
  {
    "name": "Fila Groupe SA",
    "adresse": "Chaussée de Treycovagnes 7-13, 1401 Yverdon-les-Bains",
    "marke": "",
    "lat": 46.77882275,
    "lon": 6.62674855
  },
  {
    "name": "Fila Groupe SA",
    "adresse": "Rue Eugène-de-Coulon 13, 2022 Bevaix",
    "marke": "",
    "lat": 46.9238196,
    "lon": 6.8099136
  },
  {
    "name": "Fila Groupe SA",
    "adresse": "Boulevard des Eplatures 51, 2300 La Chaux-de-Fonds",
    "marke": "",
    "lat": 47.085036200000005,
    "lon": 6.799623799398119
  },
  {
    "name": "Fischer AG, Baldegg",
    "adresse": "Hauptstrasse 8, 6283 Baldegg",
    "marke": "",
    "lat": 47.1851546,
    "lon": 8.280907919284768
  },
  {
    "name": "Fleuben-Garage AG",
    "adresse": "Oberrieterstrasse 61, 9450 Altstätten SG",
    "marke": "",
    "lat": 47.36603555000001,
    "lon": 9.554659501328596
  },
  {
    "name": "Flückiger Baumaschinen/Nutz- fahrzeuge AG",
    "adresse": "Industriestrasse 12, 3315 Bätterkinden",
    "marke": "",
    "lat": 47.14079165,
    "lon": 7.536760450000001
  },
  {
    "name": "Forellensee-Garage Aktiengesellschaft B. Salzmann",
    "adresse": "Thunstrasse 30, 3770 Zweisimmen",
    "marke": "",
    "lat": 46.56320315,
    "lon": 7.375849650261014
  },
  {
    "name": "Franz AG",
    "adresse": "St. Gallerstrasse 106, 8404 Winterthur",
    "marke": "",
    "lat": 47.4979699,
    "lon": 8.7471104
  },
  {
    "name": "Frei Bahnhof-Garage AG",
    "adresse": "Schlosstalstrasse 211, 8408 Winterthur",
    "marke": "",
    "lat": 47.50467355,
    "lon": 8.68648966550926
  },
  {
    "name": "Freihof-Garage AG",
    "adresse": "Oberdorf 40, 8752 Näfels",
    "marke": "",
    "lat": 47.09433955,
    "lon": 9.060208577748938
  },
  {
    "name": "Frey Cars AG",
    "adresse": "Thalstrasse 143, 4714 Aedermannsdorf",
    "marke": "",
    "lat": 47.2984159,
    "lon": 7.6155132
  },
  {
    "name": "Friderici Services SA",
    "adresse": "Rte du Molliau 30, 1131 Tolochenaz",
    "marke": "",
    "lat": 46.5008099463923,
    "lon": 6.482431650687107
  },
  {
    "name": "Garage Fries AG",
    "adresse": "Kantonsstrasse 73, 6234 Triengen",
    "marke": "",
    "lat": 47.2372419,
    "lon": 8.0749263
  },
  {
    "name": "Fritz Schläpfer & Co. AG",
    "adresse": "Bildstrasse 3, 9015 St. Gallen",
    "marke": "",
    "lat": 47.41348765,
    "lon": 9.311473040295729
  },
  {
    "name": "Furrer Auto Lachen AG",
    "adresse": "Glärnischstrasse 17, 8853 Lachen SZ",
    "marke": "",
    "lat": 47.19132845,
    "lon": 8.864710196383221
  },
  {
    "name": "G. Kolly S.A.",
    "adresse": "Rte de la Gruyère 88, 1724 Le Mouret",
    "marke": "",
    "lat": 46.7437238,
    "lon": 7.1721963
  },
  {
    "name": "Garage G. Zell GmbH",
    "adresse": "Juchstrasse 1, 8604 Volketswil",
    "marke": "",
    "lat": 47.39197645,
    "lon": 8.665060201407382
  },
  {
    "name": "Garage & Carrosserie Gachnang SA",
    "adresse": "Chemin des Orlons 1, 1860 Aigle",
    "marke": "",
    "lat": 46.3131108,
    "lon": 6.940969553724377
  },
  {
    "name": "Garage Galliker AG Aarburg",
    "adresse": "Oltnerstrasse 101, 4663 Aarburg",
    "marke": "",
    "lat": 47.33366625,
    "lon": 7.906052318029798
  },
  {
    "name": "Garage Galliker AG Bellach",
    "adresse": "Römerstrasse 8, 4512 Bellach",
    "marke": "",
    "lat": 47.2122493,
    "lon": 7.5091851
  },
  {
    "name": "Garage Galliker Nidfeld AG",
    "adresse": "Sternmattweg 4, 6010 Kriens",
    "marke": "",
    "lat": 47.0285369,
    "lon": 8.297111497732416
  },
  {
    "name": "Garage Galliker AG Luzern",
    "adresse": "Staldenhof 1, 6014 Luzern",
    "marke": "",
    "lat": 47.06650775,
    "lon": 8.269482786772487
  },
  {
    "name": "Garage Galliker AG Strengelbach",
    "adresse": "Zofingerstrasse 30, 4802 Strengelbach",
    "marke": "",
    "lat": 47.28066605,
    "lon": 7.934167565934062
  },
  {
    "name": "Garage Galliker AG",
    "adresse": "Hohenrainstrasse 50, 6280 Hochdorf",
    "marke": "",
    "lat": 47.16840515,
    "lon": 8.304422913398444
  },
  {
    "name": "Garage Galliker Mittelland AG Zweigniederlassung Bern",
    "adresse": "Freiburgstrasse 451, 3018 Bern",
    "marke": "",
    "lat": 46.9334183,
    "lon": 7.390939747999827
  },
  {
    "name": "Garage Galliker Mittelland AG",
    "adresse": "Kanalweg 4, 3322 Urtenen-Schönbühl",
    "marke": "",
    "lat": 47.0188561,
    "lon": 7.490648346088198
  },
  {
    "name": "Garage Galliker Nidfeld AG Kriens",
    "adresse": "Luzernerstrasse 57, 6030 Ebikon",
    "marke": "",
    "lat": 47.0711862,
    "lon": 8.323914960622684
  },
  {
    "name": "Garage Ackermann AG, Dotzigen",
    "adresse": "Scheurenstrasse 15, 3293 Dotzigen",
    "marke": "",
    "lat": 47.12011405,
    "lon": 7.335407484511822
  },
  {
    "name": "Garage Arnet AG",
    "adresse": "Ettiswilerstrasse 34, 6130 Willisau",
    "marke": "",
    "lat": 47.1278017,
    "lon": 7.998186711426484
  },
  {
    "name": "Garage B. Studer AG",
    "adresse": "Industriezone Basper 17, 3942 Raron",
    "marke": "",
    "lat": 46.30353181981528,
    "lon": 7.811497199531243
  },
  {
    "name": "Garage Balmer AG",
    "adresse": "Simmentalstrasse 625a, 3758 Latterbach",
    "marke": "",
    "lat": 46.6644809,
    "lon": 7.5796665
  },
  {
    "name": "Garage Bernard Despont SA",
    "adresse": "Zi du Vivier 2, 1690 Villaz-St-Pierre",
    "marke": "",
    "lat": 46.7179475,
    "lon": 6.9618666
  },
  {
    "name": "Garage Berset Sàrl, la Tour-de-Trême",
    "adresse": "Impasse Verte 5, 1635 La Tour-de-Trême",
    "marke": "",
    "lat": 46.6031764,
    "lon": 7.0732139
  },
  {
    "name": "Garage Bircher Ägeri AG",
    "adresse": "Zugerstrasse 75, 6314 Unterägeri",
    "marke": "",
    "lat": 47.1400985,
    "lon": 8.5731214
  },
  {
    "name": "Garage Bolzern Koch AG",
    "adresse": "Schachenweidstrasse 48, 6030 Ebikon",
    "marke": "",
    "lat": 47.07329435,
    "lon": 8.327527516640213
  },
  {
    "name": "Garage Brem AG",
    "adresse": "Sonnmattweg 6b, 5620 Bremgarten AG",
    "marke": "",
    "lat": 47.3543173,
    "lon": 8.338796
  },
  {
    "name": "Garage Bürgler GmbH",
    "adresse": "Gewerbestrasse 19, 6438 Ibach",
    "marke": "",
    "lat": 47.01271145,
    "lon": 8.632776545692023
  },
  {
    "name": "Garage-Carrosserie Friedli SA",
    "adresse": "rue de la Vignette 65, 1530 Payerne",
    "marke": "",
    "lat": 46.814295328402565,
    "lon": 6.938955716414954
  },
  {
    "name": "Garage-Carrosserie Willemin SA",
    "adresse": "Route de Porrentruy 88, 2800 Delémont",
    "marke": "",
    "lat": 47.36153917898166,
    "lon": 7.322877204785409
  },
  {
    "name": "Garage Carrozzeria Maffeis SA",
    "adresse": "Via Lugano 125, 6950 Tesserete",
    "marke": "",
    "lat": 46.06516615655478,
    "lon": 8.968191992722181
  },
  {
    "name": "Garage Chuard SA",
    "adresse": "Route de la Maladaire 6, 1562 Corcelles-près-Payerne",
    "marke": "",
    "lat": 46.82685376379902,
    "lon": 6.9519752935547485
  },
  {
    "name": "Garage de l'Etoile, succursale de Groupe Leuba SA",
    "adresse": "route de Cossonay 101, 1020 Renens VD",
    "marke": "",
    "lat": 46.5388537,
    "lon": 6.5971845
  },
  {
    "name": "Garage de la Broye Ansermet SA",
    "adresse": "Route du Grand-Chemin 30, 1562 Corcelles-près-Payerne",
    "marke": "",
    "lat": 46.83086507662658,
    "lon": 6.961598349679991
  },
  {
    "name": "Garage de la Gare Vevey S.A.",
    "adresse": "avenue Général-Guisan 47, 1800 Vevey",
    "marke": "",
    "lat": 46.46527705,
    "lon": 6.8383467301867285
  },
  {
    "name": "Garage de la Plaine Crétin SA",
    "adresse": "Route de Porrentruy 30, 2923 Courtemaîche",
    "marke": "",
    "lat": 47.452173,
    "lon": 7.0536081
  },
  {
    "name": "Garage de la Plaine, succursale de Groupe Leuba SA",
    "adresse": "rue de la Plaine 65, 1400 Yverdon-les-Bains",
    "marke": "",
    "lat": 46.77695385,
    "lon": 6.646214631167814
  },
  {
    "name": "Garage de la Riviera, succursale de Groupe Leuba SA R.Leuba & Fils SA",
    "adresse": "route de Saint-Maurice 233, 1814 La Tour-de-Peilz",
    "marke": "",
    "lat": 46.4486665,
    "lon": 6.872444442530862
  },
  {
    "name": "Garage de la Vigie MC Sport Sàrl",
    "adresse": "chemin de la Rottaz 3, 1820 Montreux",
    "marke": "",
    "lat": 46.45222405,
    "lon": 6.898811589266963
  },
  {
    "name": "Garage du Château d'Enbas",
    "adresse": "Rue du Prieuré 38, 1636 Broc",
    "marke": "",
    "lat": 46.60329015,
    "lon": 7.093805062605043
  },
  {
    "name": "Garage du Crêt",
    "adresse": "rue de la Chapelle 52, 2035 Corcelles NE",
    "marke": "",
    "lat": 46.9855998,
    "lon": 6.8656895
  },
  {
    "name": "Garage du Nord SA",
    "adresse": "route de Sécheron 2, 1964 Conthey",
    "marke": "",
    "lat": 46.2144774,
    "lon": 7.292997047993101
  },
  {
    "name": "Garage du Nord Martigny Sarl",
    "adresse": "rue du Simplon 53, 1920 Martigny",
    "marke": "",
    "lat": 46.1096654,
    "lon": 7.0913627
  },
  {
    "name": "Garage du Nord Sierre SA",
    "adresse": "Ecoparc de Daval B 10, 3960 Sierre",
    "marke": "",
    "lat": 46.2730781,
    "lon": 7.5205139
  },
  {
    "name": "Garage du Repuis SA J.-J. Reymond",
    "adresse": "rue de Neuchâtel 43, 1422 Grandson",
    "marke": "",
    "lat": 46.81515515,
    "lon": 6.651907143094182
  },
  {
    "name": "Garage Chèvre SA",
    "adresse": "Rue Auguste-Quiquerez 14, 2800 Delémont",
    "marke": "",
    "lat": 47.3661843,
    "lon": 7.358886505134025
  },
  {
    "name": "Garage du Simplon Viscardi & Cie SA",
    "adresse": "Route du Grand-Saint-Bernard 17, 1880 Bex",
    "marke": "",
    "lat": 46.2507662,
    "lon": 7.002193208791617
  },
  {
    "name": "Garage Egli AG",
    "adresse": "Zürcherstrasse 7, 4310 Rheinfelden",
    "marke": "",
    "lat": 47.5530924,
    "lon": 7.797183428888974
  },
  {
    "name": "Garage Erard Sàrl",
    "adresse": "rue des Rangiers 22, 2350 Saignelégier",
    "marke": "",
    "lat": 47.25865895,
    "lon": 7.000025207867382
  },
  {
    "name": "Garage Eric Bussy",
    "adresse": "Route d'Yverdon 30, 1373 Chavornay",
    "marke": "",
    "lat": 46.71372045,
    "lon": 6.57507920000001
  },
  {
    "name": "Garage Galliker AG Gümligen",
    "adresse": "Worbstrasse 171, 3073 Gümligen",
    "marke": "",
    "lat": 46.9353071,
    "lon": 7.499787432144965
  },
  {
    "name": "Garage Gautschi AG",
    "adresse": "Bützbergstrasse 98, 4900 Langenthal",
    "marke": "",
    "lat": 47.21732555,
    "lon": 7.770099890435261
  },
  {
    "name": "Garage Gautschi AG",
    "adresse": "Bern-Zürichstrasse 44, 4900 Langenthal",
    "marke": "",
    "lat": 47.21921905000001,
    "lon": 7.769065100288185
  },
  {
    "name": "Garage Gautschi AG",
    "adresse": "Schachenstrasse 31, 3421 Lyssach",
    "marke": "",
    "lat": 47.0737707,
    "lon": 7.58881183771784
  },
  {
    "name": "Garage Gloor AG",
    "adresse": "Dorfstrasse 489, 5728 Gontenschwil",
    "marke": "",
    "lat": 47.2676699,
    "lon": 8.1473245
  },
  {
    "name": "Garage Grenacher AG",
    "adresse": "Kirchgass 26, 9442 Berneck",
    "marke": "",
    "lat": 47.424189,
    "lon": 9.614751754353458
  },
  {
    "name": "Garage Greub AG Honda Terminal Oberaargau",
    "adresse": "Kapellenweg 2+4, 4923 Wynau",
    "marke": "",
    "lat": 47.25799943556019,
    "lon": 7.823736135314328
  },
  {
    "name": "Garage Guex Nyon SA",
    "adresse": "Route d’Oulteret 44, 1260 Nyon",
    "marke": "",
    "lat": 46.39322845,
    "lon": 6.237043225135058
  },
  {
    "name": "Garage Guex SA",
    "adresse": "Route de Romanel 40, 1121 Bremblens",
    "marke": "",
    "lat": 46.5488623427251,
    "lon": 6.514112256835344
  },
  {
    "name": "Garage H.R. Baumgartner AG",
    "adresse": "Kreuzmatte 12, 6260 Reiden",
    "marke": "",
    "lat": 47.24691385,
    "lon": 7.96254109595609
  },
  {
    "name": "Garage Herzog AG",
    "adresse": "Wilerstrasse 106, 8370 Sirnach",
    "marke": "",
    "lat": 47.463194650000005,
    "lon": 9.0230106
  },
  {
    "name": "Garage Hofer AG",
    "adresse": "Landstrasse 24, 8595 Altnau",
    "marke": "",
    "lat": 47.6178793,
    "lon": 9.2676533
  },
  {
    "name": "Garage Hofmann AG",
    "adresse": "Emmentalstrasse 100, 3414 Oberburg",
    "marke": "",
    "lat": 47.03555555,
    "lon": 7.629270184101279
  },
  {
    "name": "Garage Hug AG",
    "adresse": "Karmaad 17, 9473 Gams",
    "marke": "",
    "lat": 47.20265094777087,
    "lon": 9.456174231717435
  },
  {
    "name": "Garage Kaufmann AG Wittenbach",
    "adresse": "Arbonerstrasse 39, 9300 Wittenbach",
    "marke": "",
    "lat": 47.46524395,
    "lon": 9.393860354088952
  },
  {
    "name": "Garage Kehrli Frères Aubonne SNC",
    "adresse": "Route d'Allaman 106, 1170 Aubonne",
    "marke": "",
    "lat": 46.4897415,
    "lon": 6.3987288623116285
  },
  {
    "name": "Garage Lüthi AG Hermiswil",
    "adresse": "Hauptstrasse 83, 3475 Hermiswil",
    "marke": "",
    "lat": 47.15265555,
    "lon": 7.695908108495347
  },
  {
    "name": "Garage Lüthi AG Hermiswil Zweigniederlassung Langenthal",
    "adresse": "Bleienbachstrasse 54, 4900 Langenthal",
    "marke": "",
    "lat": 47.202269,
    "lon": 7.780900567254477
  },
  {
    "name": "Garage Marti AG",
    "adresse": "Solothurnerstrasse 22, 4614 Hägendorf",
    "marke": "",
    "lat": 47.3308022,
    "lon": 7.836390340384444
  },
  {
    "name": "Garage Moderne SA",
    "adresse": "rue de la Poterne 1-3, 1630 Bulle",
    "marke": "",
    "lat": 46.62060231367547,
    "lon": 7.05859650774998
  },
  {
    "name": "Garage Moix",
    "adresse": "Route de Bramois 2, 1950 Sion",
    "marke": "",
    "lat": 46.2260736,
    "lon": 7.3872419
  },
  {
    "name": "Garage Oehri AG",
    "adresse": "Ober Au 4, 9487 Gamprin-Bendern",
    "marke": "",
    "lat": 47.2110415,
    "lon": 9.501115883476391
  },
  {
    "name": "Garage Oetterli AG",
    "adresse": "Murgenthalstrasse 67, 4900 Langenthal",
    "marke": "",
    "lat": 47.2273103,
    "lon": 7.79115315980758
  },
  {
    "name": "Garage Pfister AG",
    "adresse": "Bischofszellerstrasse 315, 9212 Arnegg",
    "marke": "",
    "lat": 47.44095915,
    "lon": 9.254795646898652
  },
  {
    "name": "Garage Rickli",
    "adresse": "Bleichiweg 3, 4460 Gelterkinden",
    "marke": "",
    "lat": 47.4606279,
    "lon": 7.8610335752257665
  },
  {
    "name": "Garage Robert SA",
    "adresse": "route de Boudry 11, 2016 Cortaillod",
    "marke": "",
    "lat": 46.94463229971642,
    "lon": 6.843488324853032
  },
  {
    "name": "Garage Rupli",
    "adresse": "Bahnhofstrasse 25, 4950 Huttwil",
    "marke": "",
    "lat": 47.11364475,
    "lon": 7.845234730583035
  },
  {
    "name": "Garage Sport Lugano SA",
    "adresse": "Via Sonvico 17, 6952 Canobbio",
    "marke": "",
    "lat": 46.029600491289486,
    "lon": 8.96776761078212
  },
  {
    "name": "Garage St-Christophe, Willemin SA",
    "adresse": "Route de Delémont 91, 2802 Develier",
    "marke": "",
    "lat": 47.3614267,
    "lon": 7.3112504
  },
  {
    "name": "Garage Staehlin Cycles-motos Succ. Alain Coucheman",
    "adresse": "rue de Lausanne 3, 1530 Payerne",
    "marke": "",
    "lat": 46.82051675,
    "lon": 6.936738617038543
  },
  {
    "name": "Garage Tanguy Micheloud SA",
    "adresse": "route de Riddes 54, 1950 Sion",
    "marke": "",
    "lat": 46.2236368,
    "lon": 7.369696178590974
  },
  {
    "name": "Garage Thöni AG",
    "adresse": "Via Santeri 73, 7130 Ilanz",
    "marke": "",
    "lat": 46.77227035930359,
    "lon": 9.196285979915306
  },
  {
    "name": "Garage Tondo AG",
    "adresse": "Landstrasse 6, 8754 Netstal",
    "marke": "",
    "lat": 47.06598055,
    "lon": 9.057388446833157
  },
  {
    "name": "Garage Tondo AG",
    "adresse": "Hauptstrasse 1, 8756 Mitlödi",
    "marke": "",
    "lat": 47.0082492,
    "lon": 9.078342595411549
  },
  {
    "name": "Garage Voigtmann AG",
    "adresse": "Frauenfelderstrasse 1A, 8404 Winterthur",
    "marke": "",
    "lat": 47.5156708,
    "lon": 8.765602171994855
  },
  {
    "name": "Garage Wirz AG",
    "adresse": "Wyhlenstrasse 43, 4133 Pratteln",
    "marke": "",
    "lat": 47.533751800000005,
    "lon": 7.707274459625223
  },
  {
    "name": "Gattoni Maintenance Poids Lourds SA",
    "adresse": "Rue du Closillon 45, 1870 Monthey",
    "marke": "",
    "lat": 46.25737465,
    "lon": 6.962801454765179
  },
  {
    "name": "Garage Gavillet SA",
    "adresse": "Route de Moudon 30, 1670 Ursy",
    "marke": "",
    "lat": 46.63667525,
    "lon": 6.833038121952116
  },
  {
    "name": "G.E.M. Garage Electro & Mécanique SA",
    "adresse": "rue de Vermont 4, 1202 Genève",
    "marke": "",
    "lat": 46.2152438,
    "lon": 6.1343519
  },
  {
    "name": "Garage Gerber Sarl",
    "adresse": "Le Saucy 2, 2722 Les Reussilles",
    "marke": "",
    "lat": 47.22405655,
    "lon": 7.084479833304049
  },
  {
    "name": "Garage Gerbsch GmbH",
    "adresse": "Badhausstrasse 1, 3063 Ittigen",
    "marke": "",
    "lat": 46.97339385,
    "lon": 7.485894742146533
  },
  {
    "name": "Auto Germann AG",
    "adresse": "Hauptstrasse 37, 5502 Hunzenschwil",
    "marke": "",
    "lat": 47.38702325,
    "lon": 8.118218155825197
  },
  {
    "name": "GNG AG",
    "adresse": "Langfeldstrasse 10, 9200 Gossau SG",
    "marke": "",
    "lat": 47.42395095,
    "lon": 9.242186534912816
  },
  {
    "name": "Gotthelf Garage AG",
    "adresse": "Wanderstrasse 63, 4054 Basel",
    "marke": "",
    "lat": 47.5523002,
    "lon": 7.5661412
  },
  {
    "name": "Karl Graf Automobile AG",
    "adresse": "Zürichstrasse 30, 8932 Mettmenstetten",
    "marke": "",
    "lat": 47.246959200000006,
    "lon": 8.461144015476911
  },
  {
    "name": "Garage Grandjean Sàrl",
    "adresse": "Chemin de Budron D5, 1052 Le Mont-sur-Lausanne",
    "marke": "",
    "lat": 46.57830654048037,
    "lon": 6.631863774133915
  },
  {
    "name": "Gräub Auto Center AG",
    "adresse": "Industriestrasse 39, 5036 Oberentfelden",
    "marke": "",
    "lat": 47.3507286,
    "lon": 8.052575549999997
  },
  {
    "name": "Garage Nicola Greco SA",
    "adresse": "Via Industria 4, 6807 Taverne",
    "marke": "",
    "lat": 46.0604876,
    "lon": 8.929827
  },
  {
    "name": "Grimm Centre André Chevalley SA",
    "adresse": "avenue des Morgines 26, 1213 Petit-Lancy",
    "marke": "",
    "lat": 46.1938772,
    "lon": 6.109485
  },
  {
    "name": "Gross Garage Baden AG",
    "adresse": "Halbartenstrasse 7a, 5430 Wettingen",
    "marke": "",
    "lat": 47.45909588175102,
    "lon": 8.33497257359011
  },
  {
    "name": "Gross Garage Baden AG",
    "adresse": "Bruggerstrasse 194, 5400 Baden",
    "marke": "",
    "lat": 47.4826127,
    "lon": 8.278853481274258
  },
  {
    "name": "Groupe AFH Automobiles Autosport SA",
    "adresse": "Avenue de Grandson 39, 1400 Yverdon-les-Bains",
    "marke": "",
    "lat": 46.78962985,
    "lon": 6.628772986607145
  },
  {
    "name": "Groupe AFH Automobiles Forges SA",
    "adresse": "Boulevard des Eplatures 59, 2300 La Chaux-de-Fonds",
    "marke": "",
    "lat": 47.0842087,
    "lon": 6.7976182
  },
  {
    "name": "Groupe AFH Automobiles Hauterive SA",
    "adresse": "Rouges-Terres 57, 2068 Hauterive NE",
    "marke": "",
    "lat": 47.01005405,
    "lon": 6.97303084999999
  },
  {
    "name": "Garage Grundbacher AG",
    "adresse": "Industrieweg 3, 3426 Aefligen",
    "marke": "",
    "lat": 47.09589135,
    "lon": 7.560595227939057
  },
  {
    "name": "Grunderco SA",
    "adresse": "rue de la Bergère 26, 1242 Satigny",
    "marke": "",
    "lat": 46.2235875,
    "lon": 6.059484619045338
  },
  {
    "name": "Grüzenfeld-Garage AG",
    "adresse": "Rudolf-Dieselstrasse 1, 8404 Winterthur",
    "marke": "",
    "lat": 47.49564025,
    "lon": 8.753339326695935
  },
  {
    "name": "Garage Gubler AG",
    "adresse": "Industriestrasse 1, 4654 Lostorf",
    "marke": "",
    "lat": 47.3720745,
    "lon": 7.947414770329302
  },
  {
    "name": "Garage Gut AG",
    "adresse": "Untere Industrie 6, 7304 Maienfeld",
    "marke": "",
    "lat": 47.0028289,
    "lon": 9.523975601075318
  },
  {
    "name": "Moto Güüge GmbH",
    "adresse": "Bouley 5, 1792 Guschelmuth",
    "marke": "",
    "lat": 46.88087335,
    "lon": 7.137702341280221
  },
  {
    "name": "Gysin + Gerspacher AG",
    "adresse": "Hunnenweg 8, 4503 Solothurn",
    "marke": "",
    "lat": 47.19881815,
    "lon": 7.532025314413307
  },
  {
    "name": "Gysin + Gerspacher AG",
    "adresse": "Ringstrasse 21, 4556 Aeschi SO",
    "marke": "",
    "lat": 47.17802215,
    "lon": 7.657640478448279
  },
  {
    "name": "H.P. Senn AG",
    "adresse": "Kasernenstrasse 67, 7007 Chur",
    "marke": "",
    "lat": 46.8469079,
    "lon": 9.5213314
  },
  {
    "name": "Hächler AG Nutzfahrzeuge",
    "adresse": "Giesserstrasse 1, 5504 Othmarsingen",
    "marke": "",
    "lat": 47.4076539,
    "lon": 8.215711943010213
  },
  {
    "name": "Halbeisen AG",
    "adresse": "Schneckelerstrasse 14, 4414 Füllinsdorf",
    "marke": "",
    "lat": 47.51494985,
    "lon": 7.720668897392979
  },
  {
    "name": "Garage Haltinner AG",
    "adresse": "Oberaustrasse 62, 9453 Eichberg",
    "marke": "",
    "lat": 47.3387202,
    "lon": 9.523991036816277
  },
  {
    "name": "Hammer Auto Center AG",
    "adresse": "Luzernerstrasse 44, 6045 Meggen",
    "marke": "",
    "lat": 47.04396545,
    "lon": 8.363587438647588
  },
  {
    "name": "Erich Hänggi Garage",
    "adresse": "Im See 14, 4208 Nunningen",
    "marke": "",
    "lat": 47.39574205,
    "lon": 7.615435575885206
  },
  {
    "name": "Häusermann AG",
    "adresse": "Rohrerstrasse 30, 5000 Aarau",
    "marke": "",
    "lat": 47.39512305,
    "lon": 8.0588417
  },
  {
    "name": "Häusermann Automobile AG",
    "adresse": "Am Dorfbach 14, 8308 Illnau",
    "marke": "",
    "lat": 47.4120177,
    "lon": 8.722731
  },
  {
    "name": "Häusermann Automobile AG",
    "adresse": "Bernerstrasse Nord 188, 8064 Zürich",
    "marke": "",
    "lat": 47.3953609,
    "lon": 8.485827511914472
  },
  {
    "name": "Häusermann Citygarage AG",
    "adresse": "In Huebwiesen 11, 8600 Dübendorf",
    "marke": "",
    "lat": 47.40101485,
    "lon": 8.614964395731295
  },
  {
    "name": "Häusermann Stadion Garage AG",
    "adresse": "Rapperswilerstrasse 66, 8620 Wetzikon ZH",
    "marke": "",
    "lat": 47.31583865,
    "lon": 8.7956257
  },
  {
    "name": "Garage Hediger SA",
    "adresse": "Route d'Italie 35, 1951 Sion",
    "marke": "",
    "lat": 46.2463218,
    "lon": 7.3879373
  },
  {
    "name": "Hedin Automotive Chur AG",
    "adresse": "Kasernenstrasse 165, 7007 Chur",
    "marke": "",
    "lat": 46.8460814,
    "lon": 9.5102194
  },
  {
    "name": "Hedin Automotive Schweiz AG",
    "adresse": "Hügsamstrasse 2, 8833 Samstagern",
    "marke": "",
    "lat": 47.1966588,
    "lon": 8.680741670353195
  },
  {
    "name": "Hedin Automotive Schweiz AG Zweigniederlassung Dielsdorf",
    "adresse": "Industriestrasse 6, 8157 Dielsdorf",
    "marke": "",
    "lat": 47.4833093,
    "lon": 8.4636207
  },
  {
    "name": "Hedin Automotive Schweiz AG Zweigniederlassung Wohlen",
    "adresse": "Schützenmattweg 20, 5610 Wohlen AG",
    "marke": "",
    "lat": 47.3578079,
    "lon": 8.272181261615138
  },
  {
    "name": "Hedin Automotive Widnau AG",
    "adresse": "Unterdorfstrasse 85, 9443 Widnau",
    "marke": "",
    "lat": 47.4161739,
    "lon": 9.6341763
  },
  {
    "name": "Hedin Automotive Widnau AG",
    "adresse": "Schuppisstrasse 9, 9016 St. Gallen",
    "marke": "",
    "lat": 47.4410691,
    "lon": 9.41742164613003
  },
  {
    "name": "Garage M. Heiz AG",
    "adresse": "Motorenstrasse 105, 8620 Wetzikon ZH",
    "marke": "",
    "lat": 47.33211345,
    "lon": 8.791019676317756
  },
  {
    "name": "Garage Hertach AG",
    "adresse": "Arbonerstrasse 7, 9315 Neukirch (Egnach)",
    "marke": "",
    "lat": 47.52822915,
    "lon": 9.37129504968888
  },
  {
    "name": "Hilfsmittel-Markt GmbH",
    "adresse": "Leenrütimattweg 7, 4704 Niederbipp",
    "marke": "",
    "lat": 47.2821539,
    "lon": 7.7022276532638525
  },
  {
    "name": "Hirn Appenzell AG",
    "adresse": "Gaiserstrasse 151, 9050 Appenzell",
    "marke": "",
    "lat": 47.3479286,
    "lon": 9.4317159
  },
  {
    "name": "Hirn Balgach AG",
    "adresse": "Hauptstrasse 64, 9436 Balgach",
    "marke": "",
    "lat": 47.4052558,
    "lon": 9.601744219486289
  },
  {
    "name": "Hirn Oberriet AG",
    "adresse": "Staatstrasse 192, 9463 Oberriet SG",
    "marke": "",
    "lat": 47.31157391419836,
    "lon": 9.55494313597784
  },
  {
    "name": "Hirsch Automobile AG",
    "adresse": "Teslastrasse 3, 9015 St. Gallen",
    "marke": "",
    "lat": 47.41013895,
    "lon": 9.314243770716145
  },
  {
    "name": "HKS Fördertechnik AG",
    "adresse": "Alti Ruedelfingerstrass 18, 8460 Marthalen",
    "marke": "",
    "lat": 47.63472845090632,
    "lon": 8.65718768808014
  },
  {
    "name": "Garage Hofer AG",
    "adresse": "Weinfelderstrasse 125, 8580 Amriswil",
    "marke": "",
    "lat": 47.5449654521371,
    "lon": 9.299889480967003
  },
  {
    "name": "hoffmann automobile AG",
    "adresse": "Butthollenring 1-3, 4147 Aesch BL",
    "marke": "",
    "lat": 47.47905000266981,
    "lon": 7.588696033350218
  },
  {
    "name": "hoffmann automobil ag",
    "adresse": "Baselstrasse 31, 4222 Zwingen",
    "marke": "",
    "lat": 47.4396964,
    "lon": 7.53626600654685
  },
  {
    "name": "hoffmann automobile ag",
    "adresse": "Binningerstrasse 115a, 4123 Allschwil",
    "marke": "",
    "lat": 47.54830045,
    "lon": 7.549587762019467
  },
  {
    "name": "hoffmann automobile ag Betrieb Basel",
    "adresse": "Hardstrasse 62, 4052 Basel",
    "marke": "",
    "lat": 47.5499204,
    "lon": 7.6054347
  },
  {
    "name": "Garage Hollenstein AG",
    "adresse": "Therwilerstrasse 2, 4147 Aesch BL",
    "marke": "",
    "lat": 47.4792367,
    "lon": 7.5919779
  },
  {
    "name": "Autogarage Hörhager AG",
    "adresse": "Bernstrasse 8, 3205 Gümmenen",
    "marke": "",
    "lat": 46.943385500000005,
    "lon": 7.239291080313317
  },
  {
    "name": "Garage Otto Howald AG",
    "adresse": "Engestrasse 13, 4500 Solothurn",
    "marke": "",
    "lat": 47.2011336,
    "lon": 7.5469217
  },
  {
    "name": "Huber Automobile AG",
    "adresse": "Lenzburgerstrasse 8, 5507 Mellingen",
    "marke": "",
    "lat": 47.4174003,
    "lon": 8.272184179555666
  },
  {
    "name": "Huber Nutzfahrzeuge AG",
    "adresse": "Lenzbüel 5, 8370 Sirnach",
    "marke": "",
    "lat": 47.4626841,
    "lon": 9.024527662852108
  },
  {
    "name": "Hüsser & Palkoska AG",
    "adresse": "Sihlbruggstrasse 2, 6340 Baar",
    "marke": "",
    "lat": 47.1971363,
    "lon": 8.539601
  },
  {
    "name": "Hutter Auto Riedbach AG",
    "adresse": "Frauenfelderstrasse 9, 8404 Winterthur",
    "marke": "",
    "lat": 47.5108572,
    "lon": 8.760527718844541
  },
  {
    "name": "Hutter Auto Thomi AG",
    "adresse": "Schaffhauserstrasse 6, 8503 Frauenfeld",
    "marke": "",
    "lat": 47.5612282,
    "lon": 8.889146749299066
  },
  {
    "name": "Hutter Auto Ziel AG",
    "adresse": "Schaffhauserstrasse 131, 8404 Winterthur",
    "marke": "",
    "lat": 47.5143294,
    "lon": 8.721151133778738
  },
  {
    "name": "Hutter Dynamics AG Schaffhausen",
    "adresse": "Solenbergstrasse 1, 8207 Schaffhausen",
    "marke": "",
    "lat": 47.713419,
    "lon": 8.658340090095276
  },
  {
    "name": "Hutter Dynamics AG",
    "adresse": "Hegmattenstrasse 3, 8404 Winterthur",
    "marke": "",
    "lat": 47.51027055,
    "lon": 8.760568370297404
  },
  {
    "name": "HUWAG - NUTZFAHRZEUGE AG",
    "adresse": "Haltelhusstrasse 12, 9402 Mörschwil",
    "marke": "",
    "lat": 47.4576347,
    "lon": 9.431933247615875
  },
  {
    "name": "Imholz Autohaus AG",
    "adresse": "Sinserstrasse 45, 6330 Cham",
    "marke": "",
    "lat": 47.1858167,
    "lon": 8.454038058132422
  },
  {
    "name": "Auto Inderbitzin AG",
    "adresse": "Gotthardstrasse 18, 6414 Oberarth",
    "marke": "",
    "lat": 47.0564996,
    "lon": 8.533172465554003
  },
  {
    "name": "Inter-Auto, succursale de Groupe Leuba SA",
    "adresse": "Route d'Ollon 1, 1860 Aigle",
    "marke": "",
    "lat": 46.3147711,
    "lon": 6.9661443
  },
  {
    "name": "Automobiles Jäggi SA",
    "adresse": "Grand-rue 29, 2606 Corgémont",
    "marke": "",
    "lat": 47.19369565,
    "lon": 7.142119319796531
  },
  {
    "name": "Jost's Töfflade AG",
    "adresse": "Herzogenmühlestrasse 20, 8051 Zürich",
    "marke": "",
    "lat": 47.4055742,
    "lon": 8.573217583755453
  },
  {
    "name": "Automobile Jud AG",
    "adresse": "Hauptstrasse 107, 5070 Frick",
    "marke": "",
    "lat": 47.5052246,
    "lon": 8.025559651897098
  },
  {
    "name": "Kamoo AG",
    "adresse": "Auwiesenstrasse 1, 8406 Winterthur",
    "marke": "",
    "lat": 47.4842282,
    "lon": 8.710194566945333
  },
  {
    "name": "Keigel AG",
    "adresse": "St. Alban-Anlage 72, 4052 Basel",
    "marke": "",
    "lat": 47.5522697,
    "lon": 7.6041204
  },
  {
    "name": "Keigel AG",
    "adresse": "Rheinstrasse 69, 4402 Frenkendorf",
    "marke": "",
    "lat": 47.5059532,
    "lon": 7.721005184646065
  },
  {
    "name": "Renault Füllinsdorf Keigel AG",
    "adresse": "Rheinstrasse 32, 4414 Füllinsdorf",
    "marke": "",
    "lat": 47.50611625,
    "lon": 7.721693925595238
  },
  {
    "name": "Keigel AG",
    "adresse": "Lausenerstrasse 21, 4410 Liestal",
    "marke": "",
    "lat": 47.475807,
    "lon": 7.749794291045976
  },
  {
    "name": "Keigel AG Renault Oberwil",
    "adresse": "Sägestrasse 2, 4104 Oberwil BL",
    "marke": "",
    "lat": 47.5116296,
    "lon": 7.5559978
  },
  {
    "name": "Keigel AG",
    "adresse": "Hohenrainstrasse, 4133 Pratteln",
    "marke": "",
    "lat": 47.525431476426334,
    "lon": 7.700086743962637
  },
  {
    "name": "Keigel AG",
    "adresse": "Baselstrasse 14, 4222 Zwingen",
    "marke": "",
    "lat": 47.4392431,
    "lon": 7.5358288
  },
  {
    "name": "GARAGE P-A KELLER Sàrl",
    "adresse": "ZI du Moulin du Choc G, 1122 Romanel-sur-Morges",
    "marke": "",
    "lat": 46.5598739,
    "lon": 6.5212631
  },
  {
    "name": "Kenny's Auto-Center AG Zweigniederlassung Dällikon",
    "adresse": "Buchserstrasse 30, 8108 Dällikon",
    "marke": "",
    "lat": 47.445342,
    "lon": 8.43911581408046
  },
  {
    "name": "Kenny's Auto-Center AG",
    "adresse": "Landstrasse 189, 5430 Wettingen",
    "marke": "",
    "lat": 47.4593397,
    "lon": 8.3421583
  },
  {
    "name": "Kestenholz Automobil AG NFZ Center",
    "adresse": "Güterstrasse 99, 4133 Pratteln",
    "marke": "",
    "lat": 47.5220776,
    "lon": 7.6722519
  },
  {
    "name": "H. Kiener AG",
    "adresse": "Riedmattli 5, 6423 Seewen SZ",
    "marke": "",
    "lat": 47.0319567,
    "lon": 8.625036898490706
  },
  {
    "name": "Garage Kocher AG",
    "adresse": "Vinelzstrasse 50, 3235 Erlach",
    "marke": "",
    "lat": 47.0398566,
    "lon": 7.099256406086957
  },
  {
    "name": "Garage Kohli SA",
    "adresse": "route des Tioleires 12, 1880 Bex",
    "marke": "",
    "lat": 46.24732915,
    "lon": 6.9990758500000005
  },
  {
    "name": "Kolly Aigle SA",
    "adresse": "Chemin de la Biole 12, 1860 Aigle",
    "marke": "",
    "lat": 46.3096023,
    "lon": 6.9418214
  },
  {
    "name": "Kreuchi Auto AG",
    "adresse": "Aengistrasse 20, 4704 Niederbipp",
    "marke": "",
    "lat": 47.279485050000005,
    "lon": 7.699556814335573
  },
  {
    "name": "Kreuz-Garage E. Bischof AG",
    "adresse": "Trogenerstrasse 1, 9042 Speicher",
    "marke": "",
    "lat": 47.40841565,
    "lon": 9.44609900918614
  },
  {
    "name": "Kreuz-Garage Willisau AG",
    "adresse": "Ettiswilerstrasse 10, 6130 Willisau",
    "marke": "",
    "lat": 47.123021300000005,
    "lon": 7.99421022834021
  },
  {
    "name": "Kreuz-Garage AG Weinfelden",
    "adresse": "Amriswilerstrasse 149, 8570 Weinfelden",
    "marke": "",
    "lat": 47.5619688,
    "lon": 9.127784632032975
  },
  {
    "name": "Auto-Center Küng AG",
    "adresse": "Landstrasse 148, 5430 Wettingen",
    "marke": "",
    "lat": 47.46435685214266,
    "lon": 8.32977034867766
  },
  {
    "name": "Garage Küng AG",
    "adresse": "Landstrasse 53, 5412 Gebenstorf",
    "marke": "",
    "lat": 47.4839257,
    "lon": 8.2420715
  },
  {
    "name": "Autohaus Küng AG",
    "adresse": "Im Halt 2, 5412 Gebenstorf",
    "marke": "",
    "lat": 47.48971615,
    "lon": 8.245940103062171
  },
  {
    "name": "Küry Automobile AG",
    "adresse": "Moosstrasse 9, 8803 Rüschlikon",
    "marke": "",
    "lat": 47.3025938,
    "lon": 8.5463282
  },
  {
    "name": "Kyburz Switzerland AG",
    "adresse": "Stationsstrasse 90, 8424 Embrach",
    "marke": "",
    "lat": 47.51368729412677,
    "lon": 8.590632824396689
  },
  {
    "name": "Kyburz Switzerland AG Servicestelle Zentralschweiz",
    "adresse": "Altsagenstrasse 20, 6048 Horw",
    "marke": "",
    "lat": 47.00962985,
    "lon": 8.305830199999999
  },
  {
    "name": "Kyburz Switzerland AG Servicestelle Jura",
    "adresse": "Clos Donzel 2, 2114 Fleurier",
    "marke": "",
    "lat": 46.9049722,
    "lon": 6.5947466
  },
  {
    "name": "Kyburz Switzerland AG Servicestelle Suisse Romande",
    "adresse": "Route de Denges 28F, 1027 Lonay",
    "marke": "",
    "lat": 46.5272058,
    "lon": 6.5298042
  },
  {
    "name": "Garage de l`Athénée, André Chevalley SA",
    "adresse": "route de Meyrin 122, 1214 Vernier",
    "marke": "",
    "lat": 46.2201667,
    "lon": 6.1052508
  },
  {
    "name": "L'Etoile Jurassienne, succursale de Groupe Leuba SA",
    "adresse": "Rue Saint-Maurice 2, 2800 Delémont",
    "marke": "",
    "lat": 47.3435315,
    "lon": 7.317351
  },
  {
    "name": "Garage Lanthemann S.A.",
    "adresse": "chemin des Echelles 1, 2016 Cortaillod",
    "marke": "",
    "lat": 46.94336615,
    "lon": 6.8405505
  },
  {
    "name": "Larag AG Chablais Véhicules Utilitaires",
    "adresse": "Route Boeuferrant-Sud 8, 1870 Monthey",
    "marke": "",
    "lat": 46.2735892,
    "lon": 6.958676750000009
  },
  {
    "name": "LARAG AG Langenthal",
    "adresse": "Chasseralstrasse 20, 4900 Langenthal",
    "marke": "",
    "lat": 47.2165462,
    "lon": 7.765525772666786
  },
  {
    "name": "LARAG AG Neftenbach Nutzfahrzeuge",
    "adresse": "Weiachstrasse, 8413 Neftenbach",
    "marke": "",
    "lat": 47.517973730496585,
    "lon": 8.669095659117481
  },
  {
    "name": "Larag AG Rümlang Nutzfahrzeuge",
    "adresse": "Riedgrabenstrasse 26, 8153 Rümlang",
    "marke": "",
    "lat": 47.46127775,
    "lon": 8.518892938461102
  },
  {
    "name": "Larag AG St. Gallen Nutzfahrzeuge",
    "adresse": "Lerchentalstrasse 6, 9016 St. Gallen",
    "marke": "",
    "lat": 47.44142095,
    "lon": 9.415465265112202
  },
  {
    "name": "Larag SA Echandens Véhicules Utilitaires",
    "adresse": "route d'Yverdon 18, 1026 Echandens",
    "marke": "",
    "lat": 46.5347059,
    "lon": 6.548602148618049
  },
  {
    "name": "Larag SA Satigny",
    "adresse": "rue de la Bergère 42, 1217 Meyrin",
    "marke": "",
    "lat": 46.221701573104426,
    "lon": 6.064589163522508
  },
  {
    "name": "Garage le Parc D' Andrès SA",
    "adresse": "route du Simplon 22, 3960 Sierre",
    "marke": "",
    "lat": 46.2959303,
    "lon": 7.539692
  },
  {
    "name": "Garage Lerch AG Rothrist-Aarau",
    "adresse": "Helblingstrasse 2, 4852 Rothrist",
    "marke": "",
    "lat": 47.30985175,
    "lon": 7.893489072875999
  },
  {
    "name": "Les garages Lanthemann S.A",
    "adresse": "Chemin de Praz 10, 1424 Champagne",
    "marke": "",
    "lat": 46.82731385,
    "lon": 6.663328900000002
  },
  {
    "name": "Honda Automobile Zürich Letzigraben Garage AG",
    "adresse": "Letzigraben 77, 8040 Zürich",
    "marke": "",
    "lat": 47.378325,
    "lon": 8.499993604279233
  },
  {
    "name": "Garage Nicolas Limat SA",
    "adresse": "Sécheron 1, 1740 Neyruz FR",
    "marke": "",
    "lat": 46.771403,
    "lon": 7.069714262201025
  },
  {
    "name": "Autocenter Limmattal B. Strebel AG",
    "adresse": "Grindlenstrasse 2, 8954 Geroldswil",
    "marke": "",
    "lat": 47.4167438,
    "lon": 8.4146957
  },
  {
    "name": "Lion Automobile AG",
    "adresse": "Bleienbachstrasse 54, 4900 Langenthal",
    "marke": "",
    "lat": 47.202269,
    "lon": 7.780900567254477
  },
  {
    "name": "Lorenz Nutzfahrzeuge AG",
    "adresse": "Kirchbergstrasse 61, 3421 Lyssach",
    "marke": "",
    "lat": 47.074239000000006,
    "lon": 7.580693430509751
  },
  {
    "name": "Lueg AG Zweigniederlassung Kriens",
    "adresse": "Sternmatt 6, 6010 Kriens",
    "marke": "",
    "lat": 47.02829685,
    "lon": 8.30038076636957
  },
  {
    "name": "Lueg AG",
    "adresse": "Spitalstrasse 8, 6004 Luzern",
    "marke": "",
    "lat": 47.05945115,
    "lon": 8.301500454081635
  },
  {
    "name": "Lueg AG Zweigniederlassung NF Luzern",
    "adresse": "Unterwilrain 16, 6004 Luzern",
    "marke": "",
    "lat": 47.0489684,
    "lon": 8.27180997411832
  },
  {
    "name": "Lueg AG Zweigniederlassung Sursee",
    "adresse": "Sandgruebestrasse 2, 6210 Sursee",
    "marke": "",
    "lat": 47.17706975,
    "lon": 8.110068449739963
  },
  {
    "name": "LUEG AG, Zweigniederlassung Langenthal",
    "adresse": "Schulhausstrasse 24, 4900 Langenthal",
    "marke": "",
    "lat": 47.212039950000005,
    "lon": 7.784265070038117
  },
  {
    "name": "Lustenberger Lehnhofgarage AG",
    "adresse": "Renggstrasse 2, 6162 Entlebuch",
    "marke": "",
    "lat": 46.998441850000006,
    "lon": 8.069511083890024
  },
  {
    "name": "Garage Lüthi Ins GmbH",
    "adresse": "Müntschemiergasse 56, 3232 Ins",
    "marke": "",
    "lat": 47.0041295,
    "lon": 7.114861468335747
  },
  {
    "name": "M. Bobnar AG Ford Hauptvertretung",
    "adresse": "Industriestrasse Ost 9, 4614 Hägendorf",
    "marke": "",
    "lat": 47.33619035,
    "lon": 7.852518710010722
  },
  {
    "name": "Maurice Montavon S.A.",
    "adresse": "route de Delémont 41, 2802 Develier",
    "marke": "",
    "lat": 47.3603393,
    "lon": 7.3034339
  },
  {
    "name": "M.S.R Sàrl",
    "adresse": "Route du Bois de Bay 16, 1242 Satigny",
    "marke": "",
    "lat": 46.2003894,
    "lon": 6.064115
  },
  {
    "name": "Maillard Monthey SA",
    "adresse": "Les Ilettes, 1870 Monthey",
    "marke": "",
    "lat": 46.2468867,
    "lon": 6.9651251
  },
  {
    "name": "MAN Truck & Bus Suisse SA Succursale de Bussigny",
    "adresse": "Chemin de la Venoge 1, 1030 Bussigny",
    "marke": "",
    "lat": 46.55013525,
    "lon": 6.542574694975272
  },
  {
    "name": "MAN Truck & Bus Schweiz AG Zweigniederlassung Volketswil",
    "adresse": "Im Chies 23, 8604 Volketswil",
    "marke": "",
    "lat": 47.38485085,
    "lon": 8.696105506645887
  },
  {
    "name": "mandelaugen group GmbH",
    "adresse": "Lidostrasse 5, 6006 Luzern",
    "marke": "",
    "lat": 47.05275305,
    "lon": 8.336636310270853
  },
  {
    "name": "Garage Benoit Marchon",
    "adresse": "route de Payerne 2, 1482 Cugy FR",
    "marke": "",
    "lat": 46.815651946297095,
    "lon": 6.895693264269492
  },
  {
    "name": "Garage Marti AG Niedergösgen",
    "adresse": "Oltnerstrasse 45, 5013 Niedergösgen",
    "marke": "",
    "lat": 47.3702686,
    "lon": 7.9820210231203
  },
  {
    "name": "Maurice Chapatte SA",
    "adresse": "Route de Courroux 39, 2824 Vicques",
    "marke": "",
    "lat": 47.3520484,
    "lon": 7.4018758
  },
  {
    "name": "Maurice Montavon SA Automobiles Olivotti",
    "adresse": "Route de Courtedoux 26, 2900 Porrentruy",
    "marke": "",
    "lat": 47.412302636650296,
    "lon": 7.06342634323063
  },
  {
    "name": "Max Heidegger AG",
    "adresse": "Messinastrasse 1, 9495 Triesen",
    "marke": "",
    "lat": 47.11971825,
    "lon": 9.519729099562287
  },
  {
    "name": "Max Jung AG",
    "adresse": "Eisenbahnstrasse 62, 3645 Gwatt (Thun)",
    "marke": "",
    "lat": 46.7237422,
    "lon": 7.620534134078513
  },
  {
    "name": "Mayer AG Garage Carrosserie",
    "adresse": "Oberaustrasse 2, 7203 Trimmis",
    "marke": "",
    "lat": 46.91891055,
    "lon": 9.560313557785632
  },
  {
    "name": "MB Auto Center Zug AG",
    "adresse": "Sennweidstrasse 28, 6312 Steinhausen",
    "marke": "",
    "lat": 47.1911131,
    "lon": 8.480553
  },
  {
    "name": "Autocenter Mels AG",
    "adresse": "Zeughausstrasse 18, 8887 Mels",
    "marke": "",
    "lat": 47.05553575,
    "lon": 9.411133880719252
  },
  {
    "name": "Mercedes-Benz Automobil  AG",
    "adresse": "Zürcherstrasse 109, 8952 Schlieren",
    "marke": "",
    "lat": 47.39760945,
    "lon": 8.461897363421656
  },